index,Location_name,Handler,Location_id,Longitude,Latitude,in_SG?
0, Stype Concept at 13 Kaki Bukit Road 4 #03-10 Bartley Biz Centre,bartley-biz, 451385235036893,103.84446700000001,1.275051,Central
1, DC Carpentry,bartley-biz, 1016162897,103.91103565693001,1.3388154327396,Northeast
2, Ciseern by Designer Furnishings Pte Ltd,bartley-biz, 395757633,103.91049385071,1.3391157581227,Northeast
3, 73 Ayer Rajah Crescent Food Centre,rajah-food-centre, 1021013026,103.78755356,1.29762947,Southwest
4, Bomb Shelter Food Centre,rajah-food-centre, 343854706341242,103.79044803214,1.2960716834106,Southwest
5, Ah Wei Niang Dou Fu - 亞矮酿豆腐,rajah-food-centre, 597855737264486,103.835977,1.3025079,Central
6, Admiralty West Prison,west-prison, 26680773,103.78265710299,1.4504274978408997,Northwest
7, 한국관 Han Kook Gwan The best Korean Charcoal BBQ,han-kook-gwan-korean, 756606548047535,103.95478886120002,1.3522081125074,Northeast
8, JB1 Curtain,blk-1003, 485709808432047,103.8144,1.28336,Central
9, RH Bridal & Studio,blk-1003, 419393399,103.8998032,1.3133399,Southeast
10, Ace Auto Rental,blk-1003, 2026638590724027,103.86028,1.3345,Central
11, Ramen Champion,ramen-champion, 361075526,103.98677958,1.35494659,Southeast
12, Ramen Champion,ramen-champion, 326422281243063,103.98687309944,1.3553346503075,Southeast
13, Mining Lab,kio-electronics-park, 125563204885719,103.87034,1.37791,Central
14, AgilTrack,kio-electronics-park, 430971393755818,103.84766,1.3900700000000001,Central
15, Gain City,kio-electronics-park, 366172794121510,103.86476,1.3715707000000001,Central
16, ST Airline Resourcing and Recruitment,kio-electronics-park, 466165163571722,103.84766,1.3900700000000001,Central
17, Macdonald Bukit Batok Interchange,bukit-batok-interchange, 646029823,103.75005627874,1.3496013303725,Southwest
18, Link Way To Bukit Batok Interchange,bukit-batok-interchange, 2296490983713004,103.75039926624001,1.3496614663468,Southwest
19, Gul Drive Canteen,bukit-batok-interchange, 464936650253533,103.75866092628,1.3365020064567,Southwest
20, Party World Ktv,world-ktv, 142655,103.8494973,1.2822358999999999,Central
21, Orion@payalebar,orion-@-paya, 418139,103.89031999999999,1.3293298999999998,Southeast
22, Jip Hong Building Contractor,orion-@-paya, 453420401461860,103.89031999999999,1.3293298999999998,Southeast
23, NingLife -  Best Electric Scooters in Singapore,orion-@-paya, 248000162058429,103.89031999999999,1.3293298999999998,Southeast
24, IDID PTE LTD,orion-@-paya, 1063348733744439,103.90255,1.31356,Southeast
25, Geylang Lorong 1,=>-lorong-1-geylang, 676797,103.87305379974,1.3108555237614,Southeast
26, IMAM@ Geylang Lorong 1,=>-lorong-1-geylang, 499140697,103.872749,1.3113807373342,Southeast
27, 1 Lorong 23 Geylang,=>-lorong-1-geylang, 1736829026330156,103.88088721541,1.3136102355127,Southeast
28, Geylang Lorong 1 Bus Terminal,=>-lorong-1-geylang, 103529636,103.87166466229999,1.310639652982,Southeast
29, Lor 1 Geylang,=>-lorong-1-geylang, 262357001,103.87278087831999,1.3108688609968,Southeast
30, SkyVue at Bishan,sky-vue-block, 1029665264,103.85084,1.35362,Central
31, Orange Valley Nursing Home Marsiling,home-(marsiling), 124939390,103.77433,1.42931,Northwest
32, My Sweet Home,home-(marsiling), 302347562,103.77399025983,1.4448554319747,Northwest
33, @ home Blk 213 Marsiling Crescent,home-(marsiling), 757043436,103.8559105,1.309753311,Central
34, Home Sweet Home!,home-(marsiling), 624061366,103.773220074,1.4457257380000001,Northwest
35, Paya Lebar Methodist Girls' School,paya-lebar-girls', 498092049,103.8854102601,1.3511751574846003,Southeast
36, Bus Stop 63301 (Paya Lebar Girls' Sch),paya-lebar-girls', 655130204882105,103.88526000089001,1.3515602036291998,Southeast
37, Bus Stop 63309 (Opp Paya Lebar Girls' Sch),paya-lebar-girls', 2171937579516883,103.88577731719,1.3519478803691,Northeast
38, Agape Concert Hall,paya-lebar-girls', 284192495760304,103.88538028164,1.3511744020431,Southeast
39, Pararde Square @ PLMGSS,paya-lebar-girls', 196670214555920,103.88528462394001,1.3514381881639999,Southeast
40, Singapore,the-singapore, 274029466,103.85600000000001,1.29306,Central
41, Orchard Shopping Centre,orchard-shopping-centre, 149021751824992,103.9513249475,1.3402954125,Southeast
42, Ion Orchard Shopping Centre,orchard-shopping-centre, 242784379,103.74924759999999,1.3498407,Southwest
43, Ministry of Communications and Information (MCI),ministry-of-communications-and-information, 90099,103.84829797004,1.2906772340898,Central
44, KPO - Killiney Post Office,killiney-post, 281568666,103.84062685,1.30036498,Central
45, Killiney Road Post Office,killiney-post, 1660453,103.84059604071,1.3003115067239,Central
46, Akaroa French Books,killiney-post, 1588088004776197,103.84021,1.29999,Central
47, Kampong Bahru Bus Terminal,bahru-bus-terminal), 157943054844186,103.76265959999999,1.3780777,Northwest
48, Lavender Street Bus Terminal,bahru-bus-terminal), 3388106,103.86182430209,1.312927008025,Central
49, Blk 603C Punggol Road,blk-603c, 274133773307264,103.907815,1.402857,Northeast
50, My Wedding Couture,blk-603c, 520520918127210,103.90791999999999,1.40334,Northeast
51, Tai Chong Kok,tai-chong-kok, 382303996,103.8439,1.2820200000000002,Central
52, Chinatown Tai Chong Kok Confectionery Hue Kee,tai-chong-kok, 2172596782952057,103.84372358168001,1.2811641088365,Central
53, China Tai Chong Kok Hue Kee 大中国饼家,tai-chong-kok, 481152435954728,103.80439748493,1.2863651960942,Central
54, Bedok South Secondary School,bedok-south-secondary, 218452025,103.95071999999999,1.32566,Southeast
55, Bedok View Secondary School,bedok-south-secondary, 1415443,103.94338873034,1.3247989551051,Southeast
56, Basketball Court @ Bedok South Secondary School,bedok-south-secondary, 1053025861567122,103.951185,1.32601878,Southeast
57, Frat Boy's Secondary School @ Bedok South Ave 3,bedok-south-secondary, 313119955947057,103.942554,1.325485,Southeast
58, Secondary School Tuition,bedok-south-secondary, 480031275485643,103.94978,1.3716,Northeast
59, Flamingo valley-era Florence wong,siglap-valley, 282724758,103.92246189437999,1.3179209237503,Southeast
60, Flamengo Valley Construction @ Siglap Rd,siglap-valley, 1979881218744341,103.92243,1.3172131999999999,Southeast
61, Flamingo Valley Running Track,siglap-valley, 365260754042675,103.92254,1.3181586,Southeast
62, Bus Stop 83249 (Flamingo Valley),siglap-valley, 331275144300904,103.92148015,1.3170003000000001,Southeast
63, Blk 70 Bedok South,siglap-valley, 335638235,103.94301426109001,1.319576316823,Southeast
64, Geylang Serai neighbourhood police post,serai-neighbourhood, 19370321,103.88391360071999,1.3207350447451,Southeast
65, Geylang Serai Neighbourhood Police Post,serai-neighbourhood, 158802185058507,103.88393323989,1.3205619930769,Southeast
66, Bukit Batok West Park Connector,batok-west-park, 2182723518608273,103.744718,1.347594,Southwest
67, Park @ Bukit Batok West Avenue 8,batok-west-park, 192292188325033,103.73470631344,1.3404304193527,Southwest
68, Skate Park @ Bukit Batok West Ave 8,batok-west-park, 1983443791952810,103.74210883655,1.3452989032661,Southwest
69, blk 187 & 185 bt batok west ave 6 open parking,batok-west-park, 2609398539073993,103.74498515949,1.3466933479996002,Southwest
70, Hillview Park Connector,batok-west-park, 647010698765690,103.76489244,1.36349175,Southwest
71, Blk686D Choa Chu Kang Crescent,blk-686d, 401183334046867,103.74819495823,1.4039622686575999,Northwest
72, Hillview Park,hillview-park, 13464429,103.76584612171999,1.3646961316069999,Southwest
73, Hillview Park,hillview-park, 1023373584,103.765391309,1.364632614,Southwest
74, Boon Tat Street,tat-street, 518861,103.84935664622,1.2808693755501999,Central
75, Boon Tat Street BBQ Seafood,tat-street, 266645850867460,103.85058599999999,1.2801046,Central
76, Boon Tat Street Barbeque Seafood,tat-street, 237076920,103.84112957783,1.3011150118822,Central
77, Satay @ Boon Tat Street,tat-street, 256867809,103.84954653100999,1.2805073863367,Central
78, Lau Pa Sat,tat-street, 262335454,103.8506882605,1.2806453893032,Central
79, Bar Bar Black Sheep,bar-black-sheep, 3889661,103.79536271094999,1.3103058068173,Northwest
80, Sentosa Nature Discovery,sentosa-nature-discovery, 3255239,103.81738334798,1.2558318289555,Southwest
81, Sentosa Nature Discovery,sentosa-nature-discovery, 691064481276412,103.81737755872,1.2558250175491998,Southwest
82, Queen Elizabeth walk,elizabeth-walk, 770778,103.85353950778,1.2886415706912,Central
83, Syonan Jinja,syonan, 363257423,103.81366949055,1.348146810821,Central
84, Red Swastika School,red-swastika-school, 1028494141,103.824009,1.275103,Central
85, Red Swastika School,red-swastika-school, 252661450,103.93430280003,1.3333391013445,Southeast
86, Gelyang Bahru Hawker Center,gelyang-bahru, 436724183,103.87003939107001,1.321458443197,Central
87, Gelyang Bahru Carpark,gelyang-bahru, 927656211,103.87014342138,1.3230743665581999,Central
88, Connection One,connection-one, 67865,103.81847547702,1.2830172339541002,Central
89, Jalan Sinar Bulan/Bintang,jalan-sinar-bulan, 2118184678433932,103.97339725713002,1.362150444603,Southeast
90, Tanjong Pagar Plaza,tanjong-pagar-plaza, 826674064110103,103.84311052163,1.2755033008273,Central
91, Blk 6 Tanjong Pagar Plaza Hawker Centre,tanjong-pagar-plaza, 252696906,103.84315274087,1.2766339639608,Central
92, NTUC Tanjong Pagar Plaza,tanjong-pagar-plaza, 270856896,103.84326276761999,1.2758708649588,Central
93, Tanjong Pagar Plaza Blk 8,tanjong-pagar-plaza, 445967814,103.84327930204,1.2776304977529,Central
94, Otaku @ Tanjong Pagar Plaza,tanjong-pagar-plaza, 399169803448110,103.8439185535,1.2788009345,Central
95, Sembawang Vista,sembawang-vista, 18759554,103.82049561458,1.4461896148304998,Northwest
96, Sembawang Vista,sembawang-vista, 806115716386210,103.82096665214,1.4459767621013,Northwest
97, Blk 318 Sembawang Vista,sembawang-vista, 183129185919756,103.82008928485001,1.4458718649199,Northwest
98, Giant at Vista Point,sembawang-vista, 696895533,103.794130224,1.4314382626299997,Northwest
99, Vista Ohana SG,sembawang-vista, 1728977077391874,103.820369451,1.4470261619999998,Northwest
100, NTU School of Materials Science and Engineering Alumni Association,school-of-materials-science-and-engineering, 256740388,103.6806302,1.3473834999999998,Southwest
101, Basketball Court @ Blk 653,blk-653, 1938454122900698,103.88134556894,1.3733057420121002,Northeast
102, Blk 653C Jurong West Street 61,blk-653, 2286184178119912,103.69710503364,1.335247665996,Southwest
103, Blk 653 Woodlands Ring Road,blk-653, 760320380969688,103.79909077289,1.4380701466423003,Northwest
104, Blk 653A Jurong West Street 61,blk-653, 492449987940591,103.69723727911999,1.335465189915,Southwest
105, Bus Stop 22461 (Opp Blk 653B),blk-653, 2190330654551670,103.69619607924999,1.3359408879268,Southwest
106, PanHealth Family Clinic,panhealth-family, 381818175347778,103.90100100000001,1.41001,Northeast
107, Jalan Lim Tai See,lim-tai-see, 1213770,103.79276293312999,1.3218483784514998,Northwest
108, Lim See Tai Chong Soo Kiu Liong Tong,lim-tai-see, 639269955,103.8414,1.27495,Central
109, Ventura Heights,lim-tai-see, 14591398,103.79157666696999,1.3215076506666001,Northwest
110, Yun Shan Temple 云山宫,lim-tai-see, 2546315622061850,103.79417272539,1.3222402726443998,Northwest
111, Par Bowling Equipment and Supplies,lim-tai-see, 1999041130189572,103.79275,1.32308,Northwest
112, Singapore Chinese Girls' School,chinese-girls'-school, 907410,103.82789152483,1.3204361582449,Central
113, Singapore Chinese Girls' School,chinese-girls'-school, 950039699,103.82789152483,1.3204361582449,Central
114, Lower Seletar Reservoir,lower-seletar-reservoir, 222560622,103.83298353990999,1.4104314963941003,Central
115, Lower Seletar Reservoir Water Play Area,lower-seletar-reservoir, 265016165,103.8333839984,1.4106819535336999,Central
116, Water Venture Lower Seletar Reservoir,lower-seletar-reservoir, 331504554248612,103.834194,1.410938,Central
117, Car Park @ Lower Seletar Reservoir,lower-seletar-reservoir, 243423609674648,103.83422278661,1.4113705620221,Central
118, Heritage Bridge,lower-seletar-reservoir, 1867074873408984,103.83440494536998,1.4094123195538,Central
119, Toa Payoh Vista Market,payoh-vista, 916146,103.85192898452,1.3347406795571999,Central
120, Toa Payoh Vista Market,payoh-vista, 579260249192872,103.85197645437,1.3348084455017,Central
121, Vista Dental Toa Payoh,payoh-vista, 312648085430615,103.8478578426,1.3325074393958,Central
122, Sky Terrace @ TreVista,payoh-vista, 2166565643376500,103.84701855796,1.3379620109228998,Central
123, ICloud Activation Removal Services,payoh-vista, 1022553489,103.84405,1.33549,Central
124, *SCAPEmedia Hub,scapemedia, 802672596,103.83548990000001,1.30111,Central
125, Riviera Prawn Fishing,prawn-fishing-&, 246214728,103.91896804823,1.3969752195886,Northeast
126, Prawn Fishing @ East Coast Park,prawn-fishing-&, 229182179,103.91664653623,1.3023099198054,Southeast
127, Jurong Hill Prawn Fishing & Beer Garden,prawn-fishing-&, 15977540,103.70869831777,1.3205459114735,Southwest
128, Family And Juvenile Court,juvenile-court, 3407213,103.84362585324,1.2866493106217,Central
129, Jurong East Bus Interchange,interchange-=>-jurong, 219542919,103.742,1.335,Southwest
130, Boon Lay Interchange (Jurong Point),interchange-=>-jurong, 374662129,103.70538867699,1.338999696792,Southwest
131, Jurong East Interchange,interchange-=>-jurong, 257642696,103.84571101,1.29118589,Central
132, Wendy's @ Jurong East Interchange,interchange-=>-jurong, 15869176,103.74154959607999,1.3334952815916001,Southwest
133, Jurong East Bus Interchange,interchange-=>-jurong, 142196119643856,103.7449823,1.3855383,Southwest
134, Macritchie Reservoir Submerged Boardwalk,submerged-boardwalk, 305306226725155,103.83202762785999,1.3414503424103001,Central
135, Kent Ridge Terminal,terminal-=>-kent-ridge-terminal), 2927249,103.76943767542,1.2943123393683,Southwest
136, Kent Ridge Bus Terminal,terminal-=>-kent-ridge-terminal), 767766546896022,103.76981399439,1.2943147744644,Southwest
137, Yuan Xiang Vegetarian Restaurant,yuan-vegetarian-restaurant, 3630059,103.90150306393,1.3167741433588,Southeast
138, Fo You Yuan Vegetarian Restaurant,yuan-vegetarian-restaurant, 5948263,103.85694481824,1.310288151078,Central
139, Hub Synergy Point,(hub-synergy, 493464181168198,103.84452004045,1.274308280121,Central
140, 70 Anson Road (Hub Synergy Point),(hub-synergy, 1105133,103.84469800421999,1.2740644073651999,Central
141, Eunos TenagaVille,eunos-tenaga, 546036122512991,103.90438726612,1.331018887519,Northeast
142, 659 Jalan Tenaga,eunos-tenaga, 305477530,103.905890918,1.334221578,Northeast
143, Jalan Tenaga Blk 660,eunos-tenaga, 279141323,103.90674439344,1.3341630762148,Northeast
144, Jalan Tenaga Blk 652 Alliance Clinic and Surgery,eunos-tenaga, 137923209735933,103.907736,1.3329775,Northeast
145, Blk 644 Bedok Reservoir Road,eunos-tenaga, 269709969,103.90498829482,1.3307076880233,Northeast
146, NTU Lee Kong Chian School of Medicine,kong-chian-school-of, 276280284,103.84890459969,1.3215629299391,Central
147, SMU Lee Kong Chian School of Business,kong-chian-school-of, 758275704375468,103.85063565666,1.2949090600517,Central
148, NTU Lee Kong Chian School Of Medicine,kong-chian-school-of, 320831952108873,103.67873177780001,1.3442648058061,Southwest
149, Lee Kong Chian School of Medicine,kong-chian-school-of, 773165129697002,103.79318475723,1.3030120954092,Southwest
150, Playground Near Blk 420,near-blk, 724528614612924,103.72601205579001,1.3501185022631002,Southwest
151, Basketball Court Near Blk 682B,near-blk, 357260964819911,103.70479071483,1.3438208240923997,Southwest
152, Open Space Near Blk 374,near-blk, 492952177859073,103.75114,1.35832,Southwest
153, Playground (near Blk 134),near-blk, 296151334430987,103.77810118619,1.4376110630539,Northwest
154, Lorong 27a Geylang,lorong-27a-geylang, 1452949371468802,103.88457501750999,1.3137146156343,Southeast
155, 25 Lorong 27-A Geylang,lorong-27a-geylang, 1570838296345817,103.8643833,1.3049913999999998,Central
156, 26 Geylang Lorong 27A,lorong-27a-geylang, 305137846565958,103.88441529999999,1.3122285000004,Southeast
157, Geylang Church Of Christ,lorong-27a-geylang, 783633648358175,103.88490825890999,1.3144326436883,Southeast
158, Singapore,lorong-27a-geylang, 286517643,103.846656631,1.28185036671,Central
159, Marine Parade,marine-parade, 8016390,103.90572512826,1.3021849730014,Southeast
160, Marine Parade Estate,marine-parade, 247231155,103.925,1.30417,Southeast
161, Marine Parade Community Building,marine-parade, 261419806,103.90973436761999,1.3052359251107,Southeast
162, Blk 488 Segar Grove,segar-grove, 1544245012478968,103.7711568,1.3893758999999999,Northwest
163, Segar Grove Group Purchase,segar-grove, 498168823584692,103.77123,1.38871,Northwest
164, Sansei - A Heritage of Quality,sansei-singapura, 19551525977,103.82925,1.38822,Central
165, Sansei Singapura Pte Ltd,sansei-singapura, 354307885136250,103.829086,1.388087,Central
166, Aliwal Park Hotel,aliwal-park, 19619127,103.86024,1.3033700000000001,Central
167, Aliwal Street Car Park (No. A0004),aliwal-park, 483711428808254,103.860957,1.3021459999999998,Central
168, White Sands Primary School,sands-primary-school, 2039065,103.96107491166,1.3654885951668,Northeast
169, White Sands Primary School Thinkers' Lodge,sands-primary-school, 290064251611434,103.96086899999999,1.365751,Northeast
170, Golden Pagoda Buddhist Temple 护国金塔寺,golden-pagoda-temple, 640021617,103.9302,1.36824,Northeast
171, Golden Pagoda Buddhist Temple,golden-pagoda-temple, 100103950106335,103.702345,1.3495825000000001,Southwest
172, Yew Huat Scaffolding Work,huat-scaffolding-work, 234267706644353,103.80473396046999,1.4485272315325002,Northwest
173, Punggol Central Blk165A,blk-165a, 415099365,103.91479095476,1.3952993974694,Northeast
174, Blk 165A Punggol Central,blk-165a, 373751686700544,103.91496113746,1.3955209105322,Northeast
175, Blk 165A Yung Kuang Road,blk-165a, 265473227277688,103.72184666667,1.3303033333333,Southwest
176, TeckWhye Crescent Blk 165A,blk-165a, 334531693766117,103.75322761154,1.3825958324927,Southwest
177, 1983 Nanyang Cafe,cafe-nanyang, 953611144,103.989228,1.3568879999999999,Southeast
178, Nanyang Cafe,cafe-nanyang, 427667290587087,103.82472038937,1.4417121259869001,Northwest
179, 1983 Cafe Nanyang,cafe-nanyang, 1975645102653688,103.989496429,1.3566760340068,Southeast
180, Cheng San Public Library,cheng-san-public, 163201897044286,103.89376999999999,1.37248,Northeast
181, Cheng San Community Centre,cheng-san-public, 115125948649145,103.8461975,1.3746833,Central
182, 5footway.inn Project Ann Siang,5footway.inn-(ann-siang), 478532359155164,103.84532,1.28199,Central
183, Tanah Merah Country Club Tampines Course,country-club---tampines-course, 3178589,103.97115685899,1.3275913688546,Southeast
184, TMCC Tampines Course,country-club---tampines-course, 222833744969854,103.97109,1.3272700000000002,Southeast
185, Tampines Golfers Club,country-club---tampines-course, 375884379176608,103.93563,1.34896,Northeast
186, Transview Golf TMCC Tampines,country-club---tampines-course, 928630147329137,103.97267758011999,1.3262999891784,Southeast
187, Global Tots Preschool,global-tots-preschool, 325691658,103.79842901814001,1.3103681227848,Northwest
188, Global Tots Preschool - Mountbatten,global-tots-preschool, 1493358374088509,103.89378,1.29968,Southeast
189, St Margaret's Primary School,margaret's-primary-school, 1192658,103.84612393271,1.303924268518,Central
190, St. Margaret's Primary School,margaret's-primary-school, 168608300271030,103.84585724786,1.3041973793216,Central
191, Macpherson Minced Meat Noodle,meat-noodle, 279660970,103.86938212439001,1.3293216222222,Southeast
192, Hiang Ji Roasted Meat & Noodle House,meat-noodle, 6093735,103.84818506375,1.332961852824,Central
193, Minced Meat Noodle,meat-noodle, 1013938636,103.85545045399999,1.301540674,Central
194, Compassvale Lane Blk 206A,blk-206a, 289852078,103.89701240289,1.3866450033463,Northeast
195, Blk 206A Compsssvale Lane,blk-206a, 245062003023749,103.89649577876,1.386738146034,Northeast
196, Blk 206A Boon Lay Drive,blk-206a, 308134493,103.71533553333,1.3454702266477,Southwest
197, Bus Stop 67201 (Blk 206A),blk-206a, 244799106380883,103.89620551661999,1.3866167001238998,Northeast
198, LE Regal,le-regal, 878161817,103.87990509616999,1.3126009580898998,Southeast
199, Sin Chie Toke Huan,sin-chie, 1515870,103.88808001235,1.3630731269417,Northeast
200, Anglo Indian Cafe & Bar,anglo-indian-cafe-&, 113989282630744,103.85276432769001,1.2948487445299999,Central
201, Anglo Indian Cafe n Bar,anglo-indian-cafe-&, 959524776,103.85032873700001,1.278909385,Central
202, SAF NTU Academy,saf-ntu, 331396047663361,103.68426262330999,1.3434610074948001,Southwest
203, Jurong Community Hospital,jurong-community-hospital, 1021413992,103.7470833,1.3329444,Southwest
204, Ng Teng Fong Hospital,jurong-community-hospital, 1797773257156066,103.7452613,1.3340823,Southwest
205, A63 DENTAL,jurong-community-hospital, 185342149044727,103.74420445995001,1.3354970353984,Southwest
206, Ambulatory/Endoscopy Discharge Lounge,jurong-community-hospital, 458061424719862,103.74585,1.3334854,Southwest
207, Espace de Prière,jurong-community-hospital, 310992336151060,103.74535288185999,1.3330787868454,Southwest
208, Carlisle Road,carlisle-road, 3415036,103.8478311757,1.3147305663935,Central
209, OverEasy,overeasy, 452992,103.85438922606,1.2860856923626,Central
210, OverEasy Orchard,overeasy, 968833471,103.8307037,1.30511,Central
211, PA Water-Venture at Lower Seletar Reservoir,water-venture-lower-seletar, 319628087,103.83261095555001,1.4107286470718998,Central
212, Yuan Vegetarian Bistro,yuan-vegetarian, 392106199,103.86296542573,1.3124918313954,Central
213, Bee Huat Department Store,bee-huat-department-store, 305658993429552,103.807978,1.2733430000000001,Southwest
214, Bee Huat Department Store @Bedok,bee-huat-department-store, 311551529679371,103.91371083038,1.3333045625005,Northeast
215, Bee Huat Department Store ( Tampines),bee-huat-department-store, 1883660108388581,103.94498,1.346009,Northeast
216, Shaw Theatres nex,shaw-theatres, 639443,103.87178006401,1.3506415225762,Southeast
217, Shaw Theatres @ Lot 1,shaw-theatres, 13428505,103.74496396493,1.3849614696503,Southwest
218, Shaw Theatres,shaw-theatres, 498089265,103.8315,1.30579,Central
219, Shaw Theatres Waterway Point,shaw-theatres, 1025364161,103.90240192596,1.4070123391563,Northeast
220, Shaw Theatres JCube,shaw-theatres, 234771377,103.74043671407,1.3334562521478999,Southwest
221, Blk 101 Clementi Street 14,clementi-street-14, 274894436698880,103.76941052732,1.3218688025691,Northwest
222, Blk 104 Clementi Street 14,clementi-street-14, 299109604254151,103.76895904541,1.3221044126091999,Northwest
223, Blk 102 Clementi Street 14,clementi-street-14, 2313060292069040,103.76906620199,1.3222732749437,Northwest
224, Sunset Way Exercise Corner,clementi-street-14, 304455526836830,103.76871,1.3227988000000002,Northwest
225, Jurong Point Subway,clementi-street-14, 361655317213361,103.76911111,1.32192959,Northwest
226, Electromagnetic Effects Research Laboratory (EMERL),effects-research, 2056020271145788,103.67915705479,1.3514659529799997,Southwest
227, Klapsons The Boutique Hotel,klapsons, 558013,103.84187504296,1.2739285438274,Central
228, Fabrika @ Klapsons,klapsons, 214343056,103.84189797984001,1.273905669752,Central
229, Klapsons,klapsons, 165103954432734,103.84188775564002,1.2740635237428999,Central
230, East Coast Carpark C4,coast-carpark-c4, 162008684510555,103.9176822,1.3027138,Southeast
231, East Coast Carpark C4,coast-carpark-c4, 506707376055426,103.91821999999999,1.30251,Southeast
232, GoCycling,coast-carpark-c4, 246091682256200,103.91821999999999,1.30251,Southeast
233, SBS Transit Soon Lee Bus Depot,soon-lee-depot, 8195749,103.69817432007,1.3312550196015,Southwest
234, Bus Stop 22191 (Soon Lee Depot),soon-lee-depot, 548104252328974,103.69834919034001,1.3315460899277,Southwest
235, SBS Transit West District (Soon Lee Bus Depot),soon-lee-depot, 1842087639194323,103.69846413407,1.3311079492688997,Southwest
236, Blk 103A Depot Road,blk-103a, 325602801,103.81359891334,1.2809203328587,Southwest
237, Blk 103A Multi-storey Carpark,blk-103a, 263150617721287,103.90148213711001,1.3825192550543999,Northeast
238, VTX Solutions,blk-103a, 359304737452902,103.81336999999999,1.28065,Southwest
239, Singapore Electric Vehicles,smart-innovation-centre, 1092885764110482,103.8967,1.33481,Southeast
240, Block 552 Ang Mo Kio Avenue 10,block-552, 255254305093613,103.85697757157,1.3725837190006,Central
241, Block 552 Bedok North Avenue 1,block-552, 259694488062081,103.92706225163,1.3316660518026,Southeast
242, Block 552 Pasir Ris St 51,block-552, 607683269258670,103.94454,1.38232,Northeast
243, 432C Yishun Avenue 1,432c-=>, 194671641436089,103.84585600000001,1.4195238000000001,Northwest
244, Princes Flower Shop Pte Ltd,flower-shop-(pte), 8447329,103.76158900929,1.3774540968346998,Southwest
245, Katong Flower Shop (Pte) Ltd,flower-shop-(pte), 513452575798604,103.94840909361,1.3282271213307,Southeast
246, Prince's Flower Shop Pte Ltd,flower-shop-(pte), 338705446887340,103.7619,1.3774815,Southwest
247, Ang Mo Kio,mo-kio), 895895,103.85108958592,1.3689125083805,Central
248, Ang Mo Kio,mo-kio), 213022996,103.85,1.36917,Central
249, Ang Mo Kio New Town,mo-kio), 216875218,103.85,1.36917,Central
250, Ang Mo Kio Secondary School,mo-kio), 234878184,103.84233750178001,1.3675946353308999,Central
251, Ang Mo Kio Central Market and Food Centre,mo-kio), 223215882,103.84636796948999,1.3720902551912,Central
252, Maris Stella High School,stella-high-school, 833223,103.87794424624,1.3420521669271002,Southeast
253, Kurasu Singapore,kurasu-singapore, 314463969002880,103.85320186615,1.29623321528,Central
254, Kurasu,kurasu-singapore, 250311185642016,103.85343018118999,1.295946608087,Central
255, Lower Delta Road,lower-delta, 2381235,103.82251732946,1.2803711060304,Central
256, Lower Delta Road,lower-delta, 314109095735281,103.823851179,1.276982137,Central
257, 1090 Lower Delta,lower-delta, 18923976,103.82150651245001,1.280324549405,Central
258, Lower Delta Swimming Complex,lower-delta, 284709083,103.81975737716999,1.2890978988944999,Central
259, Hotel 81 - Changi,81-(changi), 5332756,103.91172492753999,1.3187048648864,Southeast
260, Changi Singapore Airport,81-(changi), 1433517206866974,104.00275425691,1.3154934635603,Southeast
261, Changi Point,81-(changi), 17686089,103.988983853,1.35649636808,Southeast
262, Hotel 81 Upper Changi,81-(changi), 714899312222198,103.91169677945,1.3188480960346,Southeast
263, 81 Family Clinic @ Upper Changi Rd North,81-(changi), 2310314782376046,103.97025223952,1.3611436570750002,Southeast
264, Eng's Char Siew Wanton Mee,char-siew, 217844433,103.89571451798,1.3066908999348001,Southeast
265, Haw Par Villa - Tiger Balm Gardens,haw-par-villa-tiger, 201749986980795,103.78298171722,1.285107124923,Southwest
266, Shin Sapporo Ramen @ Century Square,sapporo-ramen, 3150185,103.94399484254,1.3526558908805,Northeast
267, Tampines Fire Station,tampines-fire, 848178,103.9291,1.35816,Northeast
268, Tampines Fire Station,tampines-fire, 186849311967886,103.92913663593,1.3581508922815002,Northeast
269, IKEA Tampines Fire Command Centre,tampines-fire, 1907951085966663,103.9324666325,1.3747667208703997,Northeast
270, 1 Tampines Industrial Ave 3,tampines-fire, 593998034372690,103.93048386851,1.3581700825374,Northeast
271, Downtown Line MRT,downtown-line-mrt, 223314158,103.8560817547,1.3007295774998,Central
272, Downtown Line Mrt Station,downtown-line-mrt, 227532899,103.859356661,1.2831004259799998,Central
273, Newton MRT Downtown line,downtown-line-mrt, 1021748621,103.8377904325,1.313908538125,Central
274, Telok Ayer Downtown line MRT,downtown-line-mrt, 276200890,103.84877756341999,1.2824467461526001,Central
275, Botanic Gardens Downtown Line MRT,downtown-line-mrt, 1023540094,103.81493966402999,1.3223614824067,Central
276, Chung Cheng High School,chung-cheng, 846281,103.89174457616998,1.3050536397326002,Southeast
277, Burlamacco Ristorante,burlamacco, 47542789,103.84680999999999,1.28043,Central
278, Blk 305 Carpark,blk-305-carpark, 362586877842631,103.73496087081999,1.3450133953568,Southwest
279, South Buona Vista Road Famous Teochew Boneless Duck Rice,vista-teochew-boneless-duck, 260586748,103.856246051,1.30999001287,Central
280, Queensway Shopping Centre ~ Bonkers Link,bonkers-link, 259589219,103.80369000801001,1.2877440437362,Central
281, 乌敏岛佛山亭大伯公庙 Pulau Ubin Fo Shan Ting Da Bo Gong Temple,fo-shan-ting, 241400442896531,103.9693,1.40268,Southeast
282, 438A Alexandra Road (Alexandra Technopark),438a, 400350758,103.80028297405,1.2775780825973002,Southwest
283, Greenway Environmental Waste Management Pte Ltd,environmental-waste-management-pte, 753040934764178,103.63265,1.2770700000000001,Southwest
284, Waste Integrated Services & Environmental Pte Ltd,environmental-waste-management-pte, 1024047754,103.758879506,1.338216731,Southwest
285, BAMA Environmental Pte Ltd,environmental-waste-management-pte, 218560774963501,103.84788,1.28102,Central
286, The Masonic Club,the-masonic-club, 18926022,103.84904677008001,1.2926918621713,Central
287, Sengkang Bus Interchange,(sengkang-interchange-=>-sengkang-interchange), 280529285,103.89626067396,1.3917182514589,Northeast
288, Sengkang Bus Interchange,(sengkang-interchange-=>-sengkang-interchange), 259367081406240,103.89623189385,1.3919150021574,Northeast
289, QC House@Sengkang Interchange,(sengkang-interchange-=>-sengkang-interchange), 330128537800855,103.89618658517999,1.3910103859907,Northeast
290, Velan Trading,(sengkang-interchange-=>-sengkang-interchange), 1482925895288617,103.89369015246,1.3914007059359,Northeast
291, Sengkang Comunity Center,(sengkang-interchange-=>-sengkang-interchange), 662170531,103.86802533,1.31578518,Central
292, Changi International Airport T1 Gate D47,47-(changi, 234857522,103.99335947781,1.3640699805791,Southeast
293, Ward 47 Changi General Hospital,47-(changi, 923151139,103.94925077339,1.3405290615165,Southeast
294, Changi Airport T1 Gate 47,47-(changi, 538732267,103.99337709042,1.3640663227999,Southeast
295, IKIRU e Concept Shop Singapore,people's-park-food-centre-blk, 409258576212011,103.84231209754999,1.2846490110817,Central
296, MR PARTY,people's-park-food-centre-blk, 871054523022746,103.84255,1.28491,Central
297, Chua Lee Cosmetics (泉丽),people's-park-food-centre-blk, 329734397581591,103.8433159613,1.2861652702386002,Central
298, Tiong Bahru Pau,people's-park-food-centre-blk, 346517719257967,103.84246109476999,1.2837312144835,Central
299, E-Bridge Pre-School,e-bridge-pre-school, 1673998742844217,103.90207836,1.3827752009999998,Northeast
300, E-Bridge Pre-School,e-bridge-pre-school, 887994940,103.84413,1.2967899999999999,Central
301, E-Bridge Pre-School,e-bridge-pre-school, 2069856723329025,103.90904245097,1.4032798178303998,Northeast
302, Boo-tiful,boo-ti, 161296074793,103.87652,1.32318,Southeast
303, No Menu,no-menu, 5791347,103.84854598923,1.2813489345659999,Central
304, North Vista Primary School,north-vista-primary, 1093153,103.89583045,1.3831432257146001,Northeast
305, North Vista Primary Sch Hall,north-vista-primary, 2289025038050704,103.88954336452,1.3270761901283001,Southeast
306, The Hive,the-hive, 987813166,103.68292524238001,1.3431228282453,Southwest
307, Joo Koon Bus Interchange,joo-koon-interchange, 1023371589,103.67833333333,1.3270833333333,Southwest
308, Prago - Prata On The Go,joo-koon-interchange, 183979035314712,103.6787419,1.3167313,Southwest
309, Milkshake On The Go,joo-koon-interchange, 582507031914577,103.85208,1.28016,Central
310, Clementi,clementii, 221577153,103.765,1.3158299999999998,Southwest
311, Tonkotsu Kazan,tonkotsu-kazan, 25715025,103.84439825576,1.3211408268446,Central
312, Tonkotsu Kazan,tonkotsu-kazan, 785486905,103.76421689987,1.3804637729443001,Northwest
313, Fat Cow,fat-cow, 5765182,103.82403066730998,1.3030352031824,Central
314, Hong Lim Market & Food Centre,lim-market-and-food, 34820931,103.84586,1.28536,Central
315, Wan Lim Tea Stall @ Hong Lim Market Food Centre,lim-market-and-food, 2205556382993528,103.845778,1.285413,Central
316, Yau HoChiak,lim-market-and-food, 294928047901187,103.85600000000001,1.29306,Central
317, Seng Kee Black Chicken Herbal Soup,kee-seng, 30091384,103.91286961780001,1.3192343583102,Southeast
318, Blk 471A @ Upper Serangoon Crescent,blk-471a, 1904808159639594,103.9018163018,1.3789986465666002,Northeast
319, Blk 471a Upper Serangoon Creasent,blk-471a, 300993231,103.90148868094,1.3786614733483002,Northeast
320, Bus Stop 67559 (Opp Blk 471A),blk-471a, 254115135276002,103.88101,1.3955957,Central
321, Blk 471,blk-471a, 53801401,103.72243,1.3486499,Southwest
322, Blk 471B @ Upper Serangoon Crescent,blk-471a, 231991837751764,103.90161806841,1.3788363615277999,Northeast
323, West Crest,west-crest, 1441061672832647,103.73902594827,1.3507841777868999,Southwest
324, Seng Wong Beo Temple,seng-wong-beo-temple, 14379139,103.84460378272,1.2760328959763,Central
325, Sin Yuan Hong LP Gas Pte Ltd,lp-gas-pte-ltd, 543102696117502,103.811338,1.281236,Southwest
326, Neighbourhood Police Post,oasis-(u/c), 236996092995527,103.88147139,1.31944161,Southeast
327, Bukit Timah Nature Reserve,bukit-timah-nature, 330401,103.77579493409999,1.3481856896454,Northwest
328, Bukit Timah Hill Nature Reserve - Dairy Farm Trail,bukit-timah-nature, 237210135,103.77621896485,1.3644127718324,Northwest
329, Summit Hut@ Bukit timah Nature Reserve,bukit-timah-nature, 252579772,103.7763974725,1.3547475389408001,Northwest
330, Quarry@ Bukit Timah Nature Reserve,bukit-timah-nature, 244811299,103.77539338441,1.3493564710030002,Northwest
331, Bukit Timah Nature Reserve to Macritchie Reservoir,bukit-timah-nature, 1763132667269797,103.85600000000001,1.29306,Central
332, Swis Ling Restaurant Pte Ltd / Swis Ling Bak Kut Teh Seafood Restaurant,kut-teh-seafood, 1085135,103.84077796653,1.2805416733816999,Central
333, Compass One,compass-one, 1127794003926968,103.89504000000001,1.39205,Northeast
334, Thow Kwang Pottery Jungle,lorong-tawas, 1523988,103.69316618449,1.3532691239892,Southwest
335, Pasir Ris Drive 10,ris-drive-10, 236258972,103.93800921561,1.3785231628635999,Northeast
336, Blk 647 Pasir ris Drive 10,ris-drive-10, 454395,103.93925255642,1.3784399738053,Northeast
337, Block 702 Pasir Ris Drive 10,ris-drive-10, 2412773358738376,103.93751057551,1.3805448221162,Northeast
338, Blk 651,ris-drive-10, 258380328160782,103.93785355778999,1.3794381693217,Northeast
339, Blk 711 Pasir Ris Drive 10,ris-drive-10, 702612530119815,103.93804118503999,1.3815829376958,Northeast
340, Yung Sheng Road,sheng-road, 1599701,103.72173412559,1.3338569930496,Southwest
341, Blk 179 Yung  Sheng  Road,sheng-road, 142894996343307,103.85600000000001,1.29306,Central
342, Blk 399 Yung Sheng Road,sheng-road, 270939328,103.72037844034,1.3352107340983999,Southwest
343, 399 Yuan Sheng Road,sheng-road, 361462494625226,103.7211,1.3346561000000001,Southwest
344, Sheng Siong Segar Road,sheng-road, 820516898,103.77011910818001,1.3875308604545,Northwest
345, Caldecott MRT Station,caldecott-station, 246864269,103.8395,1.33744,Central
346, Bus Stop 52559 (Caldecott Station),caldecott-station, 1619022815064010,103.83951937928002,1.3374163162353998,Central
347, Punggol Point Walk,punggol-point-walk, 293795663,103.91242138,1.42077414,Northeast
348, ComputerService.SG by WTF Technology PTE LTD,punggol-point-walk, 563351460793656,103.90058040618999,1.4065378596111,Northeast
349, Singapore Chinese Chamber of Commerce & Industry,singapore-chinese-chamber, 135509,103.85012021733,1.2931673445912,Central
350, Singapore Chinese Chamber Institute of Business (SCCIOB),singapore-chinese-chamber, 2196362240620975,103.85001620993,1.293244679007,Central
351, Singapore Chinese Chambers & Industry Building,singapore-chinese-chamber, 480322848700584,103.84534899103001,1.2770232909001002,Central
352, The Dragon Chamber,singapore-chinese-chamber, 2661981080482767,103.84490799999999,1.299952,Central
353, Benoi Road,benoi-road, 36131495,103.67635459808001,1.3090132393916,Southwest
354, 15 Benoi Road,benoi-road, 1011731664,103.67769011576999,1.3011803381857,Southwest
355, 29,benoi-road, 586079343,103.67464160333,1.3084700866666998,Southwest
356, 34 Benoi Road,benoi-road, 579846494,103.67609459276,1.3091773900894,Southwest
357, 60 Benoi Road,benoi-road, 2164092113842209,103.67932052041,1.3275018049193001,Southwest
358, Marina Bay Waterfront Promenade,marina-promenade, 1971833,103.85612886958,1.280997160748,Central
359, Marina Promenade,marina-promenade, 1528642370600963,103.86372115271999,1.2918337800286002,Central
360, FIVE Izakaya Bar,five-izakaya-bar, 226310338,103.85257815976,1.2842548505496,Central
361, Five Izakaya Bar @ CCP,five-izakaya-bar, 222702270,103.96320319744,1.3342710149933,Southeast
362, CtrlShift,asia-media-ctr, 1561657000718030,103.78667,1.2967799999999998,Southwest
363, Tiong Poh Road,tiong-poh-road, 257549284,103.83322651988001,1.2831847865851,Central
364, Tiong Poh Road 65 '82,tiong-poh-road, 1027747486,103.83322477341,1.2830722681053999,Central
365, Tiong Bahru Seng Poh road,tiong-poh-road, 252688452,103.83228139869,1.2842126455098999,Central
366, Dripz @ Tiong Poh Road,tiong-poh-road, 445525255462511,103.83390908646999,1.2835943153742,Central
367, Ah Chiang's Porridge @ Tiong Poh Road,tiong-poh-road, 264418335,103.83298478031999,1.2830633945823,Central
368, NUS High School of Math and Science,of-math-and-science, 213133506,103.76969043648,1.3066990448421,Southwest
369, Wong Clinic,wong-clinic-&, 14690710,103.92535884562,1.33085770375,Southeast
370, Wong Clinic,wong-clinic-&, 147346428799828,103.85486365595,1.3642748524579,Central
371, Geylang Lor 29 Fried Hokkien Mee,29-geylang, 2942537,103.91187150667,1.3088666655115,Southeast
372, Lorong 29,29-geylang, 508652195820499,103.82045402201,1.2829048046854,Central
373, Lor 29 Geylang Steam Soup,29-geylang, 1542521022717125,103.88585,1.31477,Southeast
374, 水源福建面 Geylang Lor 29,29-geylang, 236224904,103.88561137998,1.3139245046718,Southeast
375, Kwong Satay,29-geylang, 253718445,103.88571027626,1.3138905371783,Southeast
376, HMI Balestier Hospital,hmi-balestier, 109891139,103.85268666289,1.3213987300886,Central
377, Pasir Ris Pa Water Venture,pa-water-venture-pasir-ris, 230882097408599,103.94345,1.3849200000000002,Northeast
378, PA Water-Venture Pasir Ris,pa-water-venture-pasir-ris, 415650012113560,103.94331622,1.3853751633333,Northeast
379, 6 Perahu Road Agri-Food & Authority of Singapore (Animal & Plant Health Centre),perahu-road, 336720370410220,103.70423647132,1.4285369247193,Southwest
380, bus stop 33041 after Perahu Road,perahu-road, 267390090579054,103.70606322139,1.4276042090133998,Southwest
381, APHC-AVA,perahu-road, 327231281161479,103.70378968486999,1.4285129881921002,Southwest
382, Post-Harvest Technology Centre,perahu-road, 336956310386660,103.70545,1.427591,Southwest
383, Intervet Norbio Singapore Pte Ltd,perahu-road, 349829338897039,103.703873,1.4285450000000002,Southwest
384, Marina at Keppel Bay,at-keppel-bay, 452465,103.81196022034,1.2636256918606001,Southwest
385, Reflections at Keppel Bay,at-keppel-bay, 1082875,103.81145827294,1.2670127700768,Southwest
386, Corals at Keppel Bay,at-keppel-bay, 370015098,103.81621747589001,1.2650432629547,Central
387, Thye Seng Hardware Enterprise,seng-hardware-enterprise, 553248891786949,103.91051053426001,1.3184434420538,Southeast
388, Platim Jewelry,platim, 1033480114,103.82913,1.30705,Central
389, Langston Ville,langston-ville, 357899144694530,103.83906806999,1.2949445050221,Central
390, Langston Ville,langston-ville, 2255451764672744,103.83895676437,1.295243694379,Central
391, Teppei Syokudo,teppei-syokudo, 421195594,103.83391999999999,1.30316,Central
392, Teppei Syokudo,teppei-syokudo, 1613696268700613,103.85208,1.28016,Central
393, Teppei Syokudo SG,teppei-syokudo, 925439654514506,103.96276999999999,1.33418,Southeast
394, Blk 105 Spottiswoode Park Estate,estate-blk-1, 265672933,103.83460626868,1.2735244915963,Central
395, Dairy Farm Estate Blk 17,estate-blk-1, 309241384,103.7698808475,1.36549722,Northwest
396, Blk 10 Marsiling Industrial Estate (SSS),estate-blk-1, 331542830988621,103.78236222087,1.4405121420121003,Northwest
397, Blk 19 Dairy Farm Estate,estate-blk-1, 817991451900766,103.77007484435998,1.3653619083741,Northwest
398, Blk 15 Dairy Farm Estate,estate-blk-1, 2267473673326524,103.76974361235001,1.3658067606365,Northwest
399, E Hub,e!-hub, 1014997124,103.9555009234,1.3760135249232,Northeast
400, E!Hub Orchid Bowling,e!-hub, 301045827,103.95568450100001,1.3758757030000002,Northeast
401, Upper Changi MRT Station (DT34),upper-changi-station, 334266657364611,103.96887,1.3575997,Southeast
402, Tanah Merah MRT Station,upper-changi-station, 54647423,103.94609,1.3270899999999999,Southeast
403, Shell Petrol Station Upper Changi Road East,upper-changi-station, 809078212,103.96091875196,1.3420390886651001,Southeast
404, Bedok MRT Station,upper-changi-station, 66656307,103.930036,1.324039,Southeast
405, Changi Fire Station,upper-changi-station, 231940010164012,103.95117389667,1.3350878450066002,Southeast
406, Clementi Neighbourhood Police Centre,clementi-neighbourhood, 242507183,103.76647718578,1.3172434405548998,Southwest
407, Clementi Neighbourhood Park,clementi-neighbourhood, 977858369063703,103.9033809,1.3766271,Northeast
408, Clementi West Neighbourhood Centre,clementi-neighbourhood, 1254484964676799,103.76438878777,1.3040279376078001,Southwest
409, Clementi Neighbourhood Police Post,clementi-neighbourhood, 350290572396311,103.764255,1.312206,Southwest
410, West Coast Neighbourhood Police Post,clementi-neighbourhood, 48944194,103.76424250000001,1.3049423,Southwest
411, West Coast Hawker Centre,west-hawker-centre-and, 13640089,103.75998702925,1.3116417699585,Southwest
412, Boon Lay Hawker Centre,west-hawker-centre-and, 2006073842965547,103.71308822195,1.3457114045562,Southwest
413, Spacious 1679sqft Jumbo for $858k only. Near Hawker centre wet market,west-hawker-centre-and, 434099550730610,103.765,1.3158299999999998,Southwest
414, Xiang Xiang Mei Shi,west-hawker-centre-and, 128859857169366,103.84883,1.32762,Central
415, ENYYAH ENAK @ Jurong West Hawker Centre & Market,west-hawker-centre-and, 1015513908587469,103.6974,1.34131,Southwest
416, Office for Young People,lorong-low-koon, 220784374790268,103.8924,1.3664098999999998,Northeast
417, Catholic Archdiocesan Youth Centre,lorong-low-koon, 2605867,103.89220016723,1.3664858659498,Northeast
418, NTU Catholic Freshmen Welcome Camp,lorong-low-koon, 602890183194124,103.89285,1.3666200000000002,Northeast
419, Holy Innocents' Primary School,lorong-low-koon, 3442151,103.89426311761,1.3668538206902001,Northeast
420, Abella Agency,lorong-low-koon, 1064146453767425,103.89352461851999,1.3658428120808,Northeast
421, Blk 218,blk-218, 188030495435857,103.84516020000001,1.3641943,Central
422, Blk 218 bedok north st 1,blk-218, 901794933342418,103.93469351995,1.3276713394041,Southeast
423, Blk 218 Lorong 8 Toa Payoh,blk-218, 265828164278075,103.85507312721,1.3432449564001998,Central
424, Blk 218 Bedok North Street 1,blk-218, 328581347,103.9347415,1.3275006,Southeast
425, Blk 218 AMK,blk-218, 557691828006384,103.84219501158,1.3649921690112998,Central
426, Suntec Office Tower 2,downtown-tower-2, 878151528,103.858589171,1.29505522057,Central
427, Ahmad Ibrahim Secondary School,ibrahim-secondary, 937390,103.82978059999999,1.4362,Northwest
428, Riverwalk Tandoor @ Farrer Park,tandoor-@-farrer-park, 301163992,103.85471337531,1.3126249350019,Central
429, Riverwalk Tandoor Farrer Park,tandoor-@-farrer-park, 1702874519737439,103.85782517984,1.3121499665514,Central
430, Singapore Airlines Sports Club,singapore-airlines-sports, 311704302212873,103.86040192107001,1.3258215738473,Central
431, Mindchamps@Biopolis,mindchamps-preschool-@-biopolis, 507892392955697,103.792612,1.30113,Southwest
432, MindChamps Preschool Buangkok at Serangoon North Ave 5,mindchamps-preschool-@-biopolis, 1656800441253360,103.86900055579001,1.3722578775502,Central
433, Breeze by the East,breeze-by-the-east, 4107607,103.93762904239,1.3135791666667,Southeast
434, Bukit Panjang Neighbourhood Police Centre,bukit-neighbourhood-police, 600611,103.77145631035,1.3865162371594,Northwest
435, Bukit Timah Neighbourhood Police Post,bukit-neighbourhood-police, 9499659,103.77456986295999,1.3396141593605,Southwest
436, Bukit Batok Neighbourhood Police Centre,bukit-neighbourhood-police, 44895578,103.75836388073,1.3493499120298,Southwest
437, Bukit Timah Neighbourhood Police Centre,bukit-neighbourhood-police, 657328,103.81225,1.32257,Northwest
438, Kaki Bukit Neighbourhood Police Post,bukit-neighbourhood-police, 2206978546232778,103.92920275160999,1.333843959092,Southeast
439, Cheong Chin Nam Road,chin-nam, 4988630,103.77547605312,1.3428451228876999,Southwest
440, Nee Soon Sports Centre,soon-sports, 1700586840266373,103.83839884249001,1.4276209325071,Northwest
441, Nee Soon Sports Centre,soon-sports, 113131799427709,103.83839833549999,1.4274187898263002,Northwest
442, Sansoon Pain Clinic,soon-sports, 1220959794622046,103.74816,1.36141,Southwest
443, Alexus babies and children,jalan-tari-dulang, 201671369869390,103.87035999999999,1.39973,Central
444, Beechwood Grove,beechwood-grove, 347001319198242,103.77812415361,1.4268235739897999,Northwest
445, Jewel Cafe and Bar,jewel-cafe-&, 75205443,103.85342,1.31531,Central
446, My Little Spanish Place,little-spanish, 214304930,103.80945955176,1.3247176344678002,Northwest
447, My Little Spanish Place at Boat Quay,little-spanish, 722843877,103.84962576697,1.2871793726875,Central
448, Police Security Command,police-security-command, 323679614850606,103.85032868155001,1.3390940879568998,Central
449, Transcom - Public Transport Security Command,police-security-command, 870693328,103.89028688924,1.3260459109545,Southeast
450, Wee's Family Coffee Shop (黄家咖啡店）,wee's-family-coffee-shop, 1019981933,103.90817103039,1.3313462926517,Northeast
451, 47 Malan Road Gillman Barracks,malan-road, 633570247101401,103.80437688339,1.275277660275,Southwest
452, Gillman Village - Malan Road,malan-road, 1025570828,103.8039859744,1.2774826305343998,Southwest
453, ELIS @ malan road,malan-road, 181322405254512,103.80346999999999,1.27636,Southwest
454, Singapore Teachers' Academy for the Arts@Malan Road,malan-road, 351456771,103.8032966842,1.276190419937,Southwest
455, Nee Soon Central Community Centre,soon-central-community-centre, 559253583,103.83379994,1.42626812,Northwest
456, Lam Soon Community Centre (Choa Chu Kang),soon-central-community-centre, 235369610,103.74056999999999,1.38179,Southwest
457, Nee Soon East Community Centre,soon-central-community-centre, 914004874,103.83885528599001,1.4306896520024,Northwest
458, Nee Soon Central Constituency,soon-central-community-centre, 121918237960617,103.8362288475,1.4264659452547,Northwest
459, North Vista Secondary School,north-vista, 236145073,103.89861111111,1.3816666666667,Northeast
460, Jurong,jurong--, 381036534,103.70833693115,1.3276005494763001,Southwest
461, Jurong Bird Park,jurong--, 214266141,103.707222,1.318056,Southwest
462, Jurong Island,jurong--, 237776657,103.69583333333,1.2666666666667,Southwest
463, Jurong Point Shopping Centre,jurong--, 38079931,103.70658150229,1.3402883275967,Southwest
464, Temasek Life Sciences Laboratory,temasek-life, 2197054597236293,103.77718448719999,1.2939955265112,Southwest
465, Laloln - Live a life of love now.,temasek-life, 174989379238533,103.85894,1.29558,Central
466, Ella J Lifestyle Cafe,temasek-life, 278195855611953,103.86018,1.29491,Central
467, Hi-Tec Mobile,temasek-life, 982855751915969,103.85761171196998,1.2951254315218999,Central
468, Alienware Concept Store,temasek-life, 306416039950769,103.85828733444,1.2954823888312,Central
469, Ang Mo Kio Industrial Park 2A,mo-kio-industrial-park-2, 47666694,103.86413779879,1.3774511785745,Central
470, Daikin Ang Mo Kio Industrial Park 2,mo-kio-industrial-park-2, 724871565,103.86581643687,1.3720984870833,Central
471, 6 Ang Mo Kio Industrial Park 2,mo-kio-industrial-park-2, 355553728530927,103.86351728637,1.3706330756153997,Central
472, Blk 5051 @ Ang Mo Kio Industrial Park 2,mo-kio-industrial-park-2, 401781870358545,103.862442,1.374015,Central
473, Autopoint Ang Mo Kio Industrial Park 2A,mo-kio-industrial-park-2, 1016023368,103.86959756,1.377308091,Central
474, A*Star Bioinformatics Institute of Singapore,bioinformatics-institute, 871247990,103.79239799499001,1.3032366321493,Southwest
475, Ginger Lily Gems,lim-tai-see-walk, 2111991569081909,103.79222,1.32292,Northwest
476, Chin Lien Bible Seminary,chin-lien-bible, 668041733,103.89220080695,1.3109668468497,Southeast
477, Bukit Batok Neighbourhood Police Post,bukit-batok-neighbourhood-police, 115199811893101,103.74972949110001,1.360002025449,Southwest
478, Bukit Batok Neighbourhood Police Post,bukit-batok-neighbourhood-police, 1891995620920195,103.74705050213001,1.3471075494873,Southwest
479, Hong Kah North Neighbourhood Police Post,bukit-batok-neighbourhood-police, 857382957943990,103.74944166536,1.3605078477751003,Southwest
480, Shuqun Primary School,shuqun-primary, 1298869,103.72113733751,1.3474230583181,Southwest
481, Shuqun Primary School,shuqun-primary, 103769769661753,103.824009,1.275103,Central
482, Perspective Visionary,perspective-visionary, 158665188114433,103.88969509999998,1.3989455,Northeast
483, Coastline Leisure,coastline-of-singapore, 1011175115,103.94859194756,1.3784902392504998,Northeast
484, East Coast Coastline Leisure .,coastline-of-singapore, 225846296,103.93638577678001,1.3071983144852,Southeast
485, Coastline Leisure Bike Station,coastline-of-singapore, 576374579482969,103.93650669633001,1.3071885542136001,Southeast
486, Coastline Residences,coastline-of-singapore, 237720163838828,103.89876,1.29929,Southeast
487, Coastline Leisure Bike Stop (Carpark B),coastline-of-singapore, 274196589952847,103.88781,1.294676,Southeast
488, Bedok Public Library,bedok-public, 323003318465520,103.93174,1.3269488999999999,Southeast
489, Bedok Public Library Heartbeat,bedok-public, 126025994776646,103.93164655806,1.3270592676886999,Southeast
490, Ice Cube @ Bedok Public Library,bedok-public, 263050055,103.93088764435,1.3269742072998,Southeast
491, Bedok Swimming Complex,bedok-public, 882922,103.93688974230999,1.3254922749678,Southeast
492, Bedok Reformative Training Centre,bedok-public, 686340,103.93893774894,1.3399182762463,Southeast
493, Huat Li Eating House,li-eating, 62431074,103.8310972766,1.4413394842593998,Northwest
494, Ji Li Eating House,li-eating, 193398431590794,103.75386524168002,1.4361831317396,Northwest
495, Toa Payoh Swimming Complex,payoh-swimming, 1398881,103.85013355784001,1.3305319956162,Central
496, Toa Payoh Swimming Complex,payoh-swimming, 1873719552949335,103.85035042075,1.3305637619769,Central
497, Opposite Toa Payoh Swimming Complex,payoh-swimming, 445709117,103.85250060573,1.3315640681857,Central
498, Swimming pool @ Toa Payoh Safra,payoh-swimming, 237778633,103.85409030935,1.3305433466538,Central
499, Bus Stop 52501 (Toa Payoh Swimming Complex),payoh-swimming, 279840902668636,103.85008547538,1.3310395793359,Central
500, Grand Copthorne Waterfront Hotel,grand-copthorne-waterfront, 221529221,103.83513441051001,1.2903751797397,Central
501, 大上海 @ Grand Copthorne Waterfront Hotel,grand-copthorne-waterfront, 223820503,103.83559514725,1.2894772305491,Central
502, Baywater,baywater, 8108153,103.93232100584,1.3374459727963999,Northeast
503, Waterfall Cafe Shangri-La,waterfall-cafe, 22877285,103.82650157291,1.3117208482372,Central
504, Housing & Development Board,housing-development-board-(jurong-west), 307486660050334,103.71918857138,1.3447974433203,Southwest
505, Kam Jia Zhuang Seafood,zhuang-seafood, 70081282,103.84417377248,1.3681765411444,Central
506, Yu Jia Zhuang Seafood Delights,zhuang-seafood, 156878987687016,103.85888563479,1.2957541819393998,Central
507, Church Of The Nativity Of The Blessed Virgin Mary,church-of-the-nativity-of-the-blessed-virgin-mary, 717251,103.89835407064001,1.3734970671095,Northeast
508, Ang Mo Kio-Thye Hua Kwan Hospital,thye-hua-kwan, 452196,103.84038895249,1.3841521525305,Central
509, Thye Hua Kwan Moral Society (THK),thye-hua-kwan, 639768989,103.84868507634,1.2899120842042,Central
510, Thye Hua Kwan Wellness Hub,thye-hua-kwan, 483943275394110,103.8067862,1.2734823999999998,Southwest
511, Thye Hua Kwan Care Centre,thye-hua-kwan, 867917733332091,103.82101759622,1.2837018791783001,Central
512, Thye Hua Kwan Educare Centre,thye-hua-kwan, 1598780250423531,103.84348014159,1.3657767078451002,Central
513, Jurong East Murugan Temple,jurong-temple, 739841261,103.73870689700001,1.341402703,Southwest
514, Duo Tian Gong Temple Jurong West,jurong-temple, 1672366612993590,103.70382208176001,1.3470876406023002,Southwest
515, Jurong East street 24 Temple,jurong-temple, 295268911095071,103.73997857837,1.3435529542736,Southwest
516, Blk 304 Jurong East St 32 Tong Whye Temple,jurong-temple, 277361541,103.73437,1.34562,Southwest
517, Beeh Low See Buddhist Temple,jurong-temple, 235403310,103.77357570305,1.3395211702557,Southwest
518, Jurong Primary School,jurong-primary-school, 1474523,103.73287850191,1.3485582254013002,Southwest
519, Jurong Primary School,jurong-primary-school, 329595341,103.73288769749,1.3486380597299998,Southwest
520, Jurong West Primary School,jurong-primary-school, 382233864,103.69870998269,1.3391825678337,Southwest
521, Jurong Primary School,jurong-primary-school, 1961585037386578,103.73311,1.34857,Southwest
522, Juying Primary School,jurong-primary-school, 6392103,103.68823105205999,1.339382778189,Southwest
523, NirvanaCares,old-jurong-road, 361815517679362,103.68850215712,1.3711633963727001,Southwest
524, Old Jurong Police Station,old-jurong-road, 1209653065860521,103.705377,1.33857,Southwest
525, Jurong Tyre Service Pte Ltd,old-jurong-road, 1035614623,103.75621,1.3314999,Southwest
526, Kerala Ayurveda Centre,before-carpark, 2092138554352765,103.95338773726999,1.359797898432,Northeast
527, Fuchun Community Club,fuchun-community, 312876001,103.7752,1.42944,Northwest
528, Badminton Court @ Fuchun Community Club,fuchun-community, 306335005,103.77479437024,1.4292653271526,Northwest
529, Burger King,fuchun-community, 240581813285415,103.77528427519,1.429267875659,Northwest
530, Xavier Sports TKD,fuchun-community, 183998631691340,103.7752,1.42944,Northwest
531, British Council (Marsiling Centre),fuchun-community, 1188141148010630,103.77523227868,1.429270387796,Northwest
532, St Anthony's Canossian Primary,anthony's-canossian-primary, 332984706,103.94122129734001,1.3342718137006002,Southeast
533, St Anthony's Canossian Primary School,anthony's-canossian-primary, 800722723,103.94036732574,1.3346719728995,Southeast
534, St Anthony's Canossian Primary School,anthony's-canossian-primary, 627902463982368,103.94025572303002,1.334973627576,Southeast
535, St. Anthony's Canossian Primary School,anthony's-canossian-primary, 1147653765383505,103.932594,1.3292694,Southeast
536, St.anthony's canossian primary school,anthony's-canossian-primary, 263658135,103.94075673905,1.3345469930171001,Southeast
537, Automobile Association Of Singapore @ Kallang,automobile-association-of, 376634090,103.87090229914,1.3213949955896,Central
538, Hindoo Road,hindoo-road, 1744773905808382,103.85344967333,1.3087346266667,Central
539, JOB TECK-Singapore agency for India /Bangladesh worker,hindoo-road, 582399692118795,103.85385,1.30873,Central
540, Recruitment Agency-Construction Worker,hindoo-road, 1706813842717326,103.85385,1.30873,Central
541, AMMA Singapore,hindoo-road, 711194590,103.85373,1.30881,Central
542, R Square,hindoo-road, 1888361011272268,103.85385,1.30873,Central
543, Jurong Water Reclamation Plant,jurong-water-reclamation, 324212045,103.68475344778,1.3132306138916001,Southwest
544, PUB Jurong Water Reclamation Plant,jurong-water-reclamation, 513470629136994,103.68603820632,1.3165029295058,Southwest
545, National Service Resort & Country Club,national-service-resort-&-country-club---kranji-sanctuary-course, 214104731,103.97394422415,1.3179804234869,Southeast
546, National Service Resort And Country Club (Kranji),national-service-resort-&-country-club---kranji-sanctuary-course, 1168846053254303,103.72731449770001,1.424226055007,Southwest
547, Bulim Bus Depot,bus-depot, 1026525185,103.705,1.3610200000000001,Southwest
548, Bayview Hotel Singapore,bayview-hotel, 700515,103.85038,1.2985,Central
549, Bethesda Bedok Tampines Church,(bedok-tampines), 1642693,103.93449418341,1.3309067487717,Southeast
550, Bethesda Bedok-Tampines Church,(bedok-tampines), 1611426538929107,103.93440222899,1.331258701064,Southeast
551, Bethesda (Bedok-Tampines) Church,(bedok-tampines), 280696882823243,103.93451125123,1.3306429186785,Southeast
552, Level 3 Sanctuary @ Bethesda (Bedok-Tampines) Church,(bedok-tampines), 606454549757067,103.93455706321998,1.3306270996486,Southeast
553, Bethesda Bedok Tampines Church,(bedok-tampines), 1849080168729019,103.9350697,1.3278027000000001,Southeast
554, Geylang Lorong 8,lorong-8-geylang, 399871230,103.87685350774,1.311733564494,Southeast
555, 65 Lorong 8 Geylang,lorong-8-geylang, 315796491829165,103.8778363292,1.3095429804141,Southeast
556, 72 Lorong 8 Geylang,lorong-8-geylang, 224079834793267,103.87739032,1.3092125000023997,Southeast
557, Mookata @ Geylang Lorong 8,lorong-8-geylang, 251913603,103.87664999230999,1.3122012547953998,Southeast
558, Hotel 81 Orchid 21 Lorong 8,lorong-8-geylang, 1026334982,103.87714138264,1.3111753216366,Southeast
559, 1-Altitude Level 63 Rooftop Bar Club N Gallery,1-altitude-rooftop-gallery-&, 249624884,103.85104490248001,1.2847667854117,Central
560, Victoria Lily Pond,victoria-lily-pond, 253255615382293,103.866275,1.283118,Central
561, Universal Optical Pte Ltd,optical-pte-ltd, 336290896831032,103.83354,1.30691,Central
562, Lookess & Optical Pte Ltd,optical-pte-ltd, 630573856985054,103.71726,1.34115,Southwest
563, Optical Boutique Pte Ltd,optical-pte-ltd, 937006733049430,103.80152,1.4404299999999999,Northwest
564, Universal Optical Pte Ltd,optical-pte-ltd, 1286129164843476,103.87268,1.35115,Southeast
565, Universal Optical Pte Ltd,optical-pte-ltd, 1437496023011095,103.84439,1.3211,Central
566, Anchorvale 303 Food Court,anchorvale-court, 2602561,103.89023743790001,1.3873287613233,Northeast
567, 7-11 @ Anchorvale Court,anchorvale-court, 295659564393909,103.88607180136,1.3903495167053,Northeast
568, Badminton Court @ Anchorvale Cc,anchorvale-court, 14710000,103.88683036329,1.3967378328707,Northeast
569, Anchorvale Community Basketball Court,anchorvale-court, 1029421006,103.888263,1.3969866000000002,Northeast
570, Badminton Court @anchorvale Cc,anchorvale-court, 2103571903035438,103.88650220244,1.3971356611262,Northeast
571, Tonkotsu King,tonkotsu, 5087188,103.84399091365,1.2763111835723,Central
572, Ramen Keisuke Tonkotsu King Four Seasons,tonkotsu, 91326776,103.85541185036,1.3010272233734,Central
573, Yuvabharathi International School Singapore,hu-ching-road, 256824571694679,103.72403231039,1.3322745618221001,Southwest
574, Taman Jurong Bus Terminal,hu-ching-road, 612758765793633,103.72379064559999,1.3290977416061,Southwest
575, Asia Car Rental,asia-car-rental, 1246246138885578,103.88549,1.3397299999999999,Southeast
576, Hougang Ave 3 Park Connector,(ave-3)-park-connector, 344538052769328,103.893268,1.359594,Northeast
577, Punggol Post Office,punggol-post-office, 570984053377504,103.91189399999999,1.394136,Northeast
578, Singapore Post,punggol-post-office, 296257364347296,103.91337047984001,1.3940084775908999,Northeast
579, SAM Machine@punggol Plaza Entranceaa,punggol-post-office, 252330565687017,103.913093,1.3936540000000002,Northeast
580, Post Box 82006,punggol-post-office, 302591987205399,103.90693082253999,1.4042324488787,Northeast
581, Kembangan MRT Station,kembangan-station), 220960179,103.91298990000001,1.32104,Southeast
582, Walkway to Kembangan Station,kembangan-station), 298648507420240,103.91121289373001,1.3241992166849,Southeast
583, Bus Stop 83062 (Kembangan Station),kembangan-station), 247392792607135,103.91302523518,1.3208275224077,Southeast
584, Bus Stop 83321 (Kembangan Station),kembangan-station), 872988756423139,103.91367673239,1.3217838615062,Southeast
585, Tavistock Avenue Park,tavistock-avenue, 650300,103.86580019,1.36949544,Southeast
586, Zion Serangoon Bible-Presbyterian Church,tavistock-avenue, 252819903,103.86221346351,1.3671923587215,Southeast
587, Happy Chef Western Foods,chef-western, 121979989,103.86237513363001,1.3052574420706,Central
588, Yong Kee Seafood Restaurant,kee-(yong, 236018709,103.85463709999999,1.30474,Central
589, yong kee h.k. roasted duck,kee-(yong, 484116332087751,103.8202987204,1.2872545528983999,Central
590, Jalan Berseh Food Centre,berseh-food, 835641,103.85689259480999,1.3074141900018001,Central
591, Nuramin @ Berseh Food Ctr,berseh-food, 725191037817766,103.856629,1.307391,Central
592, Field Behind Jln Berseh Food Centre,berseh-food, 391701281394576,103.85728897943001,1.3067799706559,Central
593, Xi Jiu Craft Beer 囍酒 Berseh Food Centre,berseh-food, 359735647947609,103.85600000000001,1.29306,Central
594, Sungei Road Laksa,berseh-food, 518736,103.85737823230998,1.3070557423655,Central
595, 1 Saint Andrew's Road,saint-andrew's-road, 1752527171635893,103.85121,1.28978,Central
596, National Kitchen by Violet Oon Singapore,saint-andrew's-road, 1020656187,103.85207894605,1.2905616273576,Central
597, St Andrew's Cathedral,saint-andrew's-road, 766031319,103.85225679999999,1.29241,Central
598, Mountbatten Community Club,mountbatten-community-club, 2642240,103.88701304359002,1.3102452830145,Southeast
599, Berries @ Mountbatten Community Club,mountbatten-community-club, 272889029950182,103.887344,1.3105177,Southeast
600, Mountbatten Mandarin Toastmasters Club,mountbatten-community-club, 777385025684670,103.88709,1.31055,Southeast
601, Jalan Tenteram Playground,jalan-tenteram-playground, 1029228142,103.85960359,1.32791486,Central
602, Chinese Heritage Centre,chinese-heritage-centre, 582457,103.68419993969,1.3435866962499,Southwest
603, Chinese Heritage Centre,chinese-heritage-centre, 324372863,103.84425853639,1.2834591713998,Central
604, Chinese Heritage Centre,chinese-heritage-centre, 304261586948996,103.68422304052,1.3437497158751002,Southwest
605, Mandai Crematorium and Columbarium Complex,crematorium-and, 535793,103.80869130989001,1.4139249732286998,Northwest
606, Sri Layan Sithi Vinayagar Pillaigal,layan-sithi, 229011247,103.8416699,1.28131,Central
607, Sri layan sithi Vinayagar Temple,layan-sithi, 277538122751213,103.8453463015,1.2844484088283001,Central
608, Celestial Resort,celestial-resort, 10890300,103.97223606004,1.4032017673133999,Southeast
609, Celestial Resort @Reception,celestial-resort, 148558582715692,103.95363866814002,1.4057937442969,Southeast
610, Blk 170,blk-170, 246922231,103.83286,1.4371,Northwest
611, Bishan Blk 170,blk-170, 499843838,103.85360510410999,1.3464715544402,Central
612, Nanyang Polytechnic Apartment Blk 170,blk-170, 273821907,103.85090859222,1.3782740039503998,Central
613, Ang Mo Kio Ave 4 Blk 170,blk-170, 1002873,103.83659343104999,1.3739895927636998,Central
614, Blk 170 Bedok South Road,blk-170, 301966217,103.94614977939001,1.3207474351717,Southeast
615, Umar Pulavar Tamil Language Centre,tamil-language-centre, 1673150,103.85909081556,1.314395223369,Central
616, Umar Pulavar Tamil Language Centre,tamil-language-centre, 2261572817411841,103.861145,1.305603,Central
617, Bus Stop 07249 (opp Pulavar Tamil Language Centre),tamil-language-centre, 250842845777182,103.85946885444,1.3153349827141,Central
618, Faber Garden,faber-garden, 1242485,103.83106295667,1.3621406666667,Central
619, Faber Garden,faber-garden, 557586941032365,103.82963690000001,1.3626655,Central
620, Summer Garden Mount Faber Safra,faber-garden, 237097299,103.81747923677,1.2773163698312,Central
621, Poolside @ Faber Garden,faber-garden, 2500422523521685,103.830895,1.362853,Central
622, Nee Soon East Community Club,nee-soon-east-community-club, 971083651,103.83870472027999,1.4305169568223999,Northwest
623, Nee Soon East Community Club,nee-soon-east-community-club, 124034651553640,103.82942396700001,1.432779199,Northwest
624, Sunflower Preschool at NSE,nee-soon-east-community-club, 1711960082392867,103.83854000000001,1.43089,Northwest
625, Buddy Hoagies Ehub Downtown East,nee-soon-east-community-club, 1428224554057805,103.83523000000001,1.41493,Central
626, Singapore Expo Hall 5,singapore-expo-hall-5, 296003505,103.929427716,1.3251689285600001,Southeast
627, Singapore Expo Hall 5B,singapore-expo-hall-5, 306148434,103.95974604645001,1.3349956002602,Southeast
628, Singapore EXPO Hall 5B,singapore-expo-hall-5, 373721789795893,103.959537,1.3335251000000001,Southeast
629, Singapore Expo Hall 5 Makan Makan Kawin Kawin,singapore-expo-hall-5, 778512042547501,103.959568,1.335033,Southeast
630, Singapore Expo Hall 5A,singapore-expo-hall-5, 2319448314968997,103.960266,1.335227,Southeast
631, Changi Business Park Bus Terminal,(changi-business-park-bus-terminal-=>-changi-business, 1012755755583307,103.96680581881,1.3416132857260001,Southeast
632, Changi Business Park Bus Terminal,(changi-business-park-bus-terminal-=>-changi-business, 914396251947159,103.965166667,1.33497222222,Southeast
633, Junior Playworld,jalan-lye-kwee, 1017518595,103.95438466,1.35349539,Northeast
634, Tippling Club,tippling-club, 220418318,103.84376585484002,1.2794950959146998,Central
635, Tippling Club @ Dempsey,tippling-club, 215334925239998,103.80959,1.30284,Central
636, Blk 158 Mei Chin Road,mei-chin-road, 102411566571841,103.803098005,1.2928141692447,Central
637, Ah Pang Steamboat Seafood,mei-chin-road, 693223342,103.8024355851,1.2932145369388002,Central
638, Mei Ling Street Food and Market Centre,mei-chin-road, 189722981830839,103.80296519,1.2931482900003999,Central
639, 紫易轩,mei-chin-road, 523294934764570,103.80288,1.29324,Central
640, Lao Jie Fang Beef Noodle,mei-chin-road, 855159991,103.80288,1.29324,Central
641, Tuas South Street 5,south-street-5, 6443875,103.62546208431999,1.2950377406634,Southwest
642, Lee Kuan Yew School of Public Policy,school-of-public-policy, 291962990,103.81763188607,1.3193058235349,Central
643, Pibo's Garden Playschool,pibo's, 571882709,103.78492059,1.33667352,Northwest
644, Cairnhill Rise,cairnhill-rise, 8201604,103.83963044555,1.3071192729199,Central
645, The Vermont @ Cairnhill Rise,cairnhill-rise, 347037795,103.83829821194999,1.3085733123565,Central
646, Cairnhill Heights @ 16 Cairnhill Rise,cairnhill-rise, 555746494940527,103.83807928062001,1.308633588914,Central
647, Alba At Cairnhill Rise,cairnhill-rise, 458678097529561,103.83964480841999,1.2962971581158,Central
648, Míng,cairnhill-rise, 1731704293809775,103.8427734375,1.3161836646805,Central
649, Blk 739,blk-73, 304708516810374,103.79678037017,1.4447907350062998,Northwest
650, 34 boon leat terrace,leat-terrace, 1004193536432206,103.79717191098,1.2766256615118,Southwest
651, habitat by honestbee,leat-terrace, 154705425402369,103.79715999999999,1.27605,Southwest
652, Kopi Box,leat-terrace, 1235731526524333,103.79715999999999,1.2760499,Southwest
653, CL Worldlink,leat-terrace, 394809614032880,103.79666999999999,1.2752299999999999,Southwest
654, Daylight Electrician Singapore,leat-terrace, 1636668606396587,103.79715999999999,1.2760499,Southwest
655, Paya Lebar Neighbourhood Police Post,lebar-neighbourhood, 1545840992176076,103.88898,1.35304,Northeast
656, Primitive Art Piercing & Tattoo Singapore,primitive-art-piercing-&, 3469020,103.83366,1.30726,Central
657, Primitive Body Art and Piercing,primitive-art-piercing-&, 295929819,103.80336,1.28762,Central
658, Primitive Art @ Queensway,primitive-art-piercing-&, 572377326612669,103.803779,1.288554,Central
659, Abc Artisan Boulangerie Co.,katong-bakery-&-confectionary, 236074661,103.90503817871999,1.3056212568588001,Southeast
660, The Humble Loaf,katong-bakery-&-confectionary, 212957504,103.90058128609002,1.3034977670857,Southeast
661, Do Main Bakery in Tanjong Katong,katong-bakery-&-confectionary, 1394154630877193,103.90608195215,1.3058491371423,Southeast
662, Pie & Coffee,katong-bakery-&-confectionary, 265403447,103.89562752895,1.3069652306392,Southeast
663, Ailin Bakery House,katong-bakery-&-confectionary, 332401628,103.89434,1.3164499,Southeast
664, Woodlands Dr 60,woodlands-dr, 12252262,103.80026,1.4469,Northwest
665, Woodlands Drive 14,woodlands-dr, 213052215,103.7918600875,1.4325201546586002,Northwest
666, Woodlands Dr 75,woodlands-dr, 252663879,103.80804631826,1.4437095930416,Northwest
667, Lian Hua Chun Fruit Trading 莲花村生果,lian-hua, 329645153,103.85258237653,1.322754188853,Central
668, Pit 74G East Coast Park,pit-74g, 221620721209039,103.95969790000001,1.31634283,Southeast
669, Choa Chu Kang St52 Blk 540,st-52, 250570758,103.74360245317,1.3929677477576,Northwest
670, Multi Purpose Hall @ 509 Jurong West St 52,st-52, 623750281380374,103.71934499999999,1.34888805,Southwest
671, First Toa Payoh Primary School,first-toa-payoh-primary, 252671991,103.85621115264,1.3399169365671002,Central
672, First Toa Payoh Primary School FTPPS 80s-90s,first-toa-payoh-primary, 1017621079,103.84896090000001,1.3337299999999999,Central
673, Woodlands Fire Post,woodlands-fire-post, 1057087031138051,103.79372104087,1.4401950885279,Northwest
674, Nanyang Technological University Graduate Students' Association,yunnan-walk-3, 1411898429113272,103.68555,1.34704,Southwest
675, NTU GSA Dance Crew,yunnan-walk-3, 207873470104850,103.68564426899,1.3469778345006,Southwest
676, Yunnan Walk,yunnan-walk-3, 574624646302616,103.69140468258001,1.3385668016038001,Southwest
677, Yunnan Gardens,yunnan-walk-3, 1027500397,103.69711908514,1.3387569481737,Southwest
678, Jang Won Korean Restaurant,jang-won, 1851629,103.84469,1.28399,Central
679, Taman Jurong,taman-jurong-wet, 376997375,103.722568725,1.33549183,Southwest
680, Taman Jurong Kakis,taman-jurong-wet, 535031139,103.72139,1.33499,Southwest
681, 336 Tah Ching Road,taman-jurong-wet, 1840584262937219,103.72451,1.33762,Southwest
682, Smart Moving Services,taman-jurong-wet, 1911968192374840,103.72247,1.3279,Southwest
683, Subway Taman Jurong Shopping Centre,taman-jurong-wet, 1834539610119510,103.72095823288001,1.3347610364700002,Southwest
684, Oriental Family Clinic,oriental-family, 531038303,103.72366349266,1.3489382852418998,Southwest
685, Corporation Tiara,singapore-corporation, 264424380,103.72151761190001,1.3319912505798999,Southwest
686, Singapore LNG Corporation Pte Ltd,singapore-corporation, 269506446,103.80275653284001,1.2734359534226,Southwest
687, ROHEI Corporation,singapore-corporation, 257745175,103.74472,1.33586,Southwest
688, Mandom Corporation Singapore,singapore-corporation, 282756479007533,103.831588,1.292425,Central
689, Police Kins Training Camp,police-training-camp, 3045624,103.7735363099,1.3209478176812,Northwest
690, Police Tactical Training Camp,police-training-camp, 5065214,103.76441904071999,1.4091359974995,Northwest
691, The Doctor's Clinic,the-doctor's-clinic, 143907219,103.72440602421999,1.3518358930113,Southwest
692, 155 Joo Chiat Terrace,chiat-terrace, 376963485,103.9050219377,1.3151875973929,Southeast
693, 102 Joo Chiat Terrace,chiat-terrace, 252715363,103.90214297799999,1.31481658531,Southeast
694, Terraced House,chiat-terrace, 105725066162951,103.91091999999999,1.31524,Southeast
695, JAN Engineering Pte. Ltd,chiat-terrace, 541044412719620,103.73885,1.33405,Southwest
696, Majorlens Philippines,chiat-terrace, 765791500271661,103.90341,1.31459,Southeast
697, Sembawang Lighting House Pte Ltd,sembawang-lighting, 12855357,103.824816929,1.44084816424,Northwest
698, LED Lighting,sembawang-lighting, 1622405534542699,103.81487,1.45925,Northwest
699, Avenue Lighting & Bathroom,sembawang-lighting, 462325897199168,103.82576,1.42598,Northwest
700, Best Choice Lights and Bath,sembawang-lighting, 1951433884973495,103.82489,1.4408299999999998,Northwest
701, Lace and Lights,sembawang-lighting, 1090333984436913,103.85600000000001,1.29306,Central
702, Arnold's Fried Chicken (S) Pte Ltd,fried-chicken, 551162,103.89312758244,1.3148484390431001,Southeast
703, Fragrance Hotel - Imperial,fragrance-hotel-(imperial), 484832368602107,103.8626854,1.3094067166667,Central
704, Fragrance Imperial Hotel,fragrance-hotel-(imperial), 48451284,103.86284340131,1.3096048597941998,Central
705, Brawn & Brains Coffee Run,fragrance-hotel-(imperial), 1086512041520455,103.86260569096001,1.3094530872394,Central
706, Tekka Lane,tekka-lane, 386870254,103.84998761405001,1.3077721898461998,Central
707, Sector 'A' Tekka Lane,tekka-lane, 324243395039631,103.84911334389,1.3063678953898998,Central
708, Tekka Expo,tekka-lane, 363645177705145,103.852225,1.305656,Central
709, Chuan Jiang Hao Zi ala Carte and Steamboat Buffet 川江 号子,chuan-jiang, 283687205098717,103.84464,1.28219,Central
710, Church of Saint Anthony (Singapore),church-of-saint-anthony, 252663147,103.77963000000001,1.42953,Northwest
711, Jin De Lai Zhong Hua La Mian 金德來中華拉麵,de-lai-zhong-hua, 318003862298448,103.84948605596,1.2873673737333,Central
712, AyerRajah Crescent,rajah-crescent, 4845221,103.78802322973,1.2955233561914,Southwest
713, 79 Ayer Rajah Crescent,rajah-crescent, 143287493002291,103.7874864,1.2979591000000001,Southwest
714, Blk 47 Ayer Rajah Crescent,rajah-crescent, 1387158128046775,103.8201548,1.2633012500001999,Central
715, 73A Ayer Rajah Crescent,rajah-crescent, 1686637834927884,103.7849741879,1.295064268334,Southwest
716, Equinix At Ayer Rajah Crescent,rajah-crescent, 562647691,103.78973572661998,1.2957634441511998,Southwest
717, Animal Cottage,animal-cottage, 1031414103705234,103.873942,1.358111,Southeast
718, Simply Toys,simply-toys, 219107913,103.82227768308,1.2638669899526,Central
719, Simply Toys,simply-toys, 978262452359508,103.84500809711001,1.3002866038510001,Central
720, Simply Toys,simply-toys, 2186232164998058,103.8231233017,1.2642388007036,Central
721, Simply Toys,simply-toys, 180298479579511,103.85550837878999,1.3000354801633,Central
722, Mandai Lian Hup Tng,mandai-lian-hup, 48115881,103.79578285584999,1.4505527218994998,Northwest
723, Mandai Lian Hup Tng,mandai-lian-hup, 242073389808436,103.795525,1.450804,Northwest
724, Chui Huay Lim Club,keng-(local, 6488723,103.84151534603001,1.3139372741057,Central
725, Hougang Street 21 Block 209 Market & Food Centre,=>-hougang-street-21-food, 748676678,103.88594121551,1.3594427602778998,Northeast
726, Fairprice Finest At Hougang Street 21,=>-hougang-street-21-food, 263914559,103.88405,1.3576,Northeast
727, Arnolds Chicken@ Hougang Green Mall,=>-hougang-street-21-food, 239823363,103.88801528903,1.3797961864467,Northeast
728, Kovan Food Market,=>-hougang-street-21-food, 295636697202023,103.88583492750999,1.3592457737777002,Northeast
729, Fatt Soon Kueh,=>-hougang-street-21-food, 478203855,103.94576324149,1.3227364166996,Southeast
730, Tanglin Trust School,tanglin-trust-school, 477221,103.79252000906999,1.2974570696063998,Southwest
731, Tanglin Trust School Alumni,tanglin-trust-school, 1017945865,103.79252000906999,1.2974570696063998,Southwest
732, 100K for Leh - Tanglin Trust School Fundraiser,tanglin-trust-school, 1818628155099710,103.7921,1.29734,Southwest
733, The Forest Cafe,tanglin-trust-school, 345244376246019,103.79337,1.2975370000000002,Southwest
734, Nixon Building,tanglin-trust-school, 343380099754212,103.79343100000001,1.297082,Southwest
735, Village Hotel Albert Court,hotel-(albert-court), 1868828,103.8509538538,1.3042529699633,Central
736, Parc Sovereign Hotel,hotel-(albert-court), 248314625266273,103.8512298,1.3037405,Central
737, Shish Mahal Restaurant - Albert Court Hotel,hotel-(albert-court), 351681982,103.85072562331,1.3040250941722,Central
738, Ren Ci Hospital,ren-ci-hospital, 800851730,103.84606018528,1.3229358921867,Central
739, Ren Ci Hospital & Medicare Centre (Moulmein),ren-ci-hospital, 183763569184131,103.84667320446998,1.3232747514296002,Central
740, LifeLine @ Ren Ci Hospital,ren-ci-hospital, 410030032864906,103.84607791900999,1.3227050674083,Central
741, Ren Ci Hospital & Medicare Centre,ren-ci-hospital, 1340712739392754,103.88650417328002,1.3814076363058,Northeast
742, TTSH Ward 7 @ Ren Ci Community Hospital,ren-ci-hospital, 1057727334407863,103.84602427483,1.3226836154537,Central
743, Dairy Farm Nature Park,dairy-farm-nature-park, 449091,103.77557331544001,1.3635325043603999,Northwest
744, Dairy Farm Nature Park,dairy-farm-nature-park, 145337219479889,103.77560660021,1.3643116976769998,Northwest
745, Dairy Farm Nature Park,dairy-farm-nature-park, 1562832647124468,103.77526195791,1.3642641749892,Northwest
746, Dairy Farm Nature Park,dairy-farm-nature-park, 359318467822088,103.85302666333,1.32138454,Central
747, Wallace Trail @ Dairy Farm Nature Park,dairy-farm-nature-park, 297544865,103.77741667832,1.3629360872623,Northwest
748, Jurong Green,jurong-green, 1023280348,103.71936388889,1.3489555555556003,Southwest
749, Jurong Green CC,jurong-green, 3864762,103.72531994576,1.3505908561798001,Southwest
750, Jurong Green CC,jurong-green, 308466594,103.72518409666,1.3504617000381003,Southwest
751, Taman Jurong Green Park,jurong-green, 225915226,103.71892237898001,1.3370245411403998,Southwest
752, Jurong Green Taekwondo,jurong-green, 153149378620596,103.72554000000001,1.35048,Southwest
753, F1 Pit Building,f1, 1623254151085029,103.86319400581999,1.2914827869302,Central
754, Tanjong Pagar Community Club,pagar-community-club, 1834306,103.84199137167,1.2762448473828,Central
755, Buffet City - Ala Carte Corner,pagar-community-club, 200749947149674,103.84154000000001,1.27616,Central
756, Veggie King International Buffet & Steamboat Restaurant,pagar-community-club, 1391929114271600,103.84161606431,1.2761860731197,Central
757, ITE College Central,ite-college-central, 42561679,103.85658575588002,1.3772357840008997,Central
758, ITE College Central (Yishun Campus),ite-college-central, 1675555,103.84465014295999,1.435470275,Northwest
759, ite college central(balestier),ite-college-central, 26003039,103.8559551478,1.3197904071161,Central
760, ITE College Central AMK Library,ite-college-central, 67414041,103.8560448647,1.3765478438996002,Central
761, Ite College Central Bishan,ite-college-central, 1408438,103.85268169009001,1.3531468044738,Central
762, Bedok South Police Neighbourhood Police Centre,chee-neighbourhood-police, 236023047,103.91955217253,1.3233051547773,Southeast
763, Bedok South Neighbourhood Police Centre,chee-neighbourhood-police, 335075120384685,103.91953386160999,1.3231689422146002,Southeast
764, All Saints Memorial Chapel,all-saints-memorial, 705842,103.88440566683,1.3652421054889,Northeast
765, Jurong East Neighbourhood Police Centre,jurong-east-neighbourhood, 11362385,103.73718000000001,1.3401399999999999,Southwest
766, Jurong East Neighbourhood Police Centre,jurong-east-neighbourhood, 1937351169904478,103.73743024394001,1.340210681706,Southwest
767, Mayfair Neighbourhood Committee,jurong-east-neighbourhood, 111575165630188,103.73353470253001,1.3456984180053002,Southwest
768, Assumption English School,assumption-eng, 517002696,103.76642342539,1.3684583611931003,Northwest
769, Bishopsgate Residences,bishopsgate-residences, 254484236,103.8242261566,1.298332715703,Central
770, Gurkha Contingent Camp,"camp,-gurkha", 250427806,103.87985847736,1.3381138643827,Southeast
771, Gurkha Contingent Mount Vernon Camp,"camp,-gurkha", 415744980,103.87865404655001,1.3381537189774,Southeast
772, Gurkha Field Training Camp,"camp,-gurkha", 636575306,104.03853271659,1.3974317676851002,Southeast
773, Upper Cross Street,upper-cross-street, 8079433,103.84326264426001,1.2860008779743002,Central
774, 34 Upper Cross Street,upper-cross-street, 1888215,103.8425581143,1.2864271298481,Central
775, 533 Upper Cross Street,upper-cross-street, 975513,103.84505036286998,1.2842470244151,Central
776, Upper Cross Street Blk 536,upper-cross-street, 275526655,103.84562,1.28525603,Central
777, 8 Upper Cross Street,upper-cross-street, 1032030916885479,103.84908472,1.28325933,Central
778, Hay Dairies Pure Goat Milk,hay-dairies, 49030,103.70934,1.43224,Southwest
779, Hay Dairies Farm,hay-dairies, 736442855,103.70922162569,1.4323350376161998,Southwest
780, Hay Dairies Goat Farm In Singapore,hay-dairies, 492715471148020,103.75369393333,1.3830324000002,Southwest
781, OneCare Clinic Hougang,onecare-clinic, 253929211936481,103.890114,1.354783,Northeast
782, OneCare Medical,onecare-clinic, 349961138778904,103.74993596013,1.3502615461026002,Southwest
783, OneCare Medical,onecare-clinic, 108536116495393,103.71211767196999,1.3465327107978,Southwest
784, New Ring Liang Ge Cantonese Roast Duck Double Boiled Soup,duck-double-boiled, 1110985355728301,103.85369,1.3000249,Central
785, East Coast Primary School,coast-primary-school, 610356562735920,103.91990840435,1.3294087941237,Southeast
786, Qifa Primary School,coast-primary-school, 751947,103.75712195078,1.3130243001436002,Southwest
787, Tagore Industrial Avenue,tagore-industrial-avenue, 8574117,103.82833598830999,1.3872677667299,Central
788, HKS @ Tagore Industrial Avenue,tagore-industrial-avenue, 245574939690449,103.82757256126999,1.3716519426709,Central
789, 463 Tagore Industrial Avenue,tagore-industrial-avenue, 2068510900145933,103.830549,1.395286,Central
790, AAA,tagore-industrial-avenue, 662039656,103.8289,1.3887399999999999,Central
791, Sanwa Nutrition Oat Choco,tagore-industrial-avenue, 1493635214217610,103.82875059999999,1.3887200000000002,Central
792, Blk 896B Woodlands Drive 50,blk-896b, 2146905758934635,103.79262952926001,1.4368673817429998,Northwest
793, Blk 896 Tampines St 81,blk-896b, 524223,103.93252414883001,1.3482364781633,Northeast
794, Blk 896A Woodlands Drive 50,blk-896b, 11879012,103.79308434705999,1.4360434556760002,Northwest
795, Bus Stop 46661 (Opp Blk 896B),blk-896b, 277317033111818,103.79233961426,1.4375499269288998,Northwest
796, Be Gorgeous,blk-896b, 1077289765760981,103.93699000000001,1.3448533,Southeast
797, One Raffles Quay North Tower,raffles-quay-north, 511867894,103.85158200163,1.28170787337,Central
798, Ernst & Young LLP,raffles-quay-north, 214097171,103.85179929200001,1.28197857801,Central
799, UBS @ ORQ North Tower,raffles-quay-north, 263996120923109,103.8520768642,1.2815053221311001,Central
800, Etiqa Insurance Singapore,raffles-quay-north, 848868838,103.85088,1.2813698999999998,Central
801,,raffles-quay-north,,103.85207,1.28158,Central
802, Broadway Foodcourt,broadway-foodcourt, 232361496805923,103.78187566,1.30434387,Southwest
803, Broadway Foodcourt @ Geylang Serai Market,broadway-foodcourt, 312194819604147,103.897769,1.3164040000000001,Southeast
804, Broadway Foodcourt Blk 1,broadway-foodcourt, 550745645338014,103.880521,1.311132,Southeast
805, Blk 556 Amk Ave 10,blk-556, 266591090,103.85748676089001,1.3722855483531,Central
806, Admiralty PCF Blk 556,blk-556, 1015949520,103.7962141,1.4339171999999998,Northwest
807, Blk 556 Pasir Ris Street 51,blk-556, 394655999,103.951968774,1.367957429,Northeast
808, Blk 556 Hougang Street 51,blk-556, 270852756904639,103.88970230656,1.3799189533757,Northeast
809, Choa Chu Kang Blk 556,blk-556, 218183211617407,103.74379655,1.3951901325,Northwest
810, Tampines Bus Interchange,tampines-station/interchange, 234696736,103.94366930658,1.3541265746778999,Northeast
811, Tampines Mrt Station/Bus interchange,tampines-station/interchange, 252881933,103.94350704735001,1.3540349092978001,Northeast
812, Tampines Bus Interchange,tampines-station/interchange, 1813868122270252,103.94284564,1.3546236,Northeast
813, Tampines Bus Interchange,tampines-station/interchange, 273074263393978,103.94350265268,1.3541653178775002,Northeast
814, NP Shuttle Bus Berth,tampines-station/interchange, 472126376609410,103.94264280796,1.3538531083372,Northeast
815, Sin Wah Seng,wah-seng, 1017196240,103.80534,1.28449,Central
816, Nan Hua Chong Fish Head Steamboat Corner,chong-fish-head-steamboat-corner, 732185,103.86058117610001,1.3040691937485,Central
817, 亞秋南華昌魚頭爐 Nan Hwa Chong Fish Head Steamboat Corner,chong-fish-head-steamboat-corner, 219847165,103.86072678083,1.304040165322,Central
818, 36 Lim Chu Kang Lane 5A,kang-lane-5a, 935689878,103.87912320071999,1.3114294130214,Southeast
819, Balmoral Clinic,balmoral-clinic, 2112232362425979,103.87660699999999,1.302808,Southeast
820, The Balmoral Clinic (Family Medicine),balmoral-clinic, 2111115215816420,103.83554876247,1.3102279370196999,Central
821, The Trenchard Arms,the-trenchard-arms, 84432652,103.90318224008001,1.3048571547353,Southeast
822, Loysel's Toy,loysel's, 1328010,103.8661,1.3060399999999999,Central
823, Bus Stop 62119 (After Sunshine Lodge),after-sunshine-lodge, 173521543557742,103.87110426552,1.3448529915674,Southeast
824, Bt Panjang,bt-panjang, 414123572,103.76039018767,1.3863540897928,Northwest
825, Bt Panjang Plaza,bt-panjang, 1011864741,103.77405684177,1.3756759208903,Northwest
826, Bt Panjang NPC,bt-panjang, 2451536551539429,103.7711808291,1.3862561131108,Northwest
827, Jelapang Road .... Bt Panjang,bt-panjang, 353853848,103.76586405134,1.3875552659051,Northwest
828, Bt Panjang Interchange,bt-panjang, 128953060533632,103.76392090899999,1.37896021936,Northwest
829, Wilkie Terrace,wilkie-terrace, 431315443,103.84827657357,1.3027979952553999,Central
830, Displacements Community Arts Project,wilkie-terrace, 550752854964810,103.84916026257,1.302837541219,Central
831, LIV on wilkie,wilkie-terrace, 136828456836308,103.84876,1.30266,Central
832, Bus Stop 64101 (Opp Gracehaven S Army),gracehaven-s-army, 491146498053446,103.87661894337,1.3720991676253997,Central
833, Fengshan Primary School Canteen,fengshan-primary-school, 535148313576619,103.93413217636,1.3322072606927,Southeast
834, Ang Mo Kio MRT Station,ang-mo-kio-station, 20700008,103.84962,1.3696700000000002,Central
835, Ang Mo Kio Fire Station,ang-mo-kio-station, 8883311,103.84571727644001,1.3848212811346001,Central
836, Ns16 Ang Mo Kio Mrt Station,ang-mo-kio-station, 239173790,103.84955589909,1.3697523797364,Central
837, Ang Mo Kio MRT Station,ang-mo-kio-station, 341531533041916,103.8493521867,1.3697211533557998,Central
838, Ang Mo Kio Police Divison HQ,ang-mo-kio-station, 241835532,103.84503776233,1.3848487211561,Central
839, ODC DISTRICENTRE Campbridge IT Building  30,districentre-3, 328282264194359,103.74807,1.33536,Southwest
840, FARO Technologies - Asia Pacific,districentre-3, 72182087713,103.9643,1.3309,Southeast
841, TNT Express,districentre-3, 883612401842616,103.952949,1.333243,Southeast
842, Atelier R Pte Ltd,districentre-3, 135889696437112,103.96373033524,1.3308997004742,Southeast
843, Xilin Districentre Bldg D,districentre-3, 314441509384464,103.96384909154,1.3314525316638,Southeast
844, Caltex@ Bukit Batok East Ave 3,caltex-bukit-batok, 645580491,103.758397915,1.3431940400006002,Southwest
845, POPStation @ Caltex Bukit Batok,caltex-bukit-batok, 1871882826181553,103.757672,1.343448,Southwest
846, Car Wash (Turtle Wax),caltex-bukit-batok, 264371244427514,103.758095,1.3431779,Southwest
847, Car Wash SG,caltex-bukit-batok, 511585736032426,103.8051,1.28877,Central
848, Blk 351 MSCP,351-mscp, 1214444022042182,103.82008130884,1.4507051338307,Northwest
849, Idyllic East Lobby,idyllic-east, 1019115388249118,103.94549126991998,1.3163046225918,Southeast
850, Swimming Pool @ Idyllic East,idyllic-east, 343448319794990,103.9454856043,1.3161124435622,Southeast
851, 3GPark@Shunfu,3g-park-@, 251061942421889,103.83832129437,1.3497915067688,Central
852, S.Saraswathy's Kshathriya 23 Saiva \ Asaiva Food Casino.-Tiffin n Meals,clementi-street-12-food, 668151590007814,103.76966999999999,1.32265,Northwest
853, S.Saraswathy's Kshathriya 23 Hot & Spicy Pasta,clementi-street-12-food, 857568051068163,103.76966999999999,1.32265,Northwest
854, Wang's Good Food and Catering,clementi-street-12-food, 408346775903335,103.7685,1.29274,Southwest
855, Shun Shun Shu Shi Liang Dou Fu,toa-payoh-vista-market, 169941150577093,103.85165543829001,1.3346564582778,Central
856, Qing Zhai Vegetarian Food,zhai-vegetarian-food, 1338176326323508,103.933125,1.327266,Southeast
857, Choo Zai Zhai Vegetarian Food,zhai-vegetarian-food, 516392562165367,103.8850297833,1.3254514037504,Southeast
858, Choo Zai Zhai Vegetarian Food,zhai-vegetarian-food, 329067794322908,103.88487121603,1.3077624836698,Southeast
859, Hong Kah Snack Bar,hong-kah-snack, 149439122456864,103.71942,1.34554,Southwest
860, Bee Cheng Hiang,bee-cheng, 78526644,103.86714,1.3269600000000001,Central
861, Bee Cheng Hiang,bee-cheng, 1226041784237575,103.90531999999999,1.3063865,Southeast
862, Bee Cheng Hiang,bee-cheng, 1853590508028963,103.84377390146,1.2844559405654,Central
863, DNV Technology Centre,dnv, 46393190,103.78705859109002,1.2906606679987,Southwest
864, NUS CFA Studios,cfa-studios, 269684949,103.7737279046,1.2991584389658999,Southwest
865, Bangkit Road,cher-siah-temple, 11083678,103.77353703525999,1.3784352675223002,Northwest
866, Delta Senior School at Chua Chu Kang Grove,kang-grove, 249691980,103.75009628623,1.3739464466154,Southwest
867, Choa Chu Kang Grove,kang-grove, 133744013478516,103.825752049,1.3841189946686,Central
868, Sol Acres Executive Condominium at Choa Chu Kang Grove,kang-grove, 1429167634070097,103.752015705,1.3749307659999999,Southwest
869, Yio Chu Kang Thomson Grove,kang-grove, 382516313,103.83212809999999,1.3803670500153,Central
870, Regent Grove Condo,kang-grove, 259610547,103.74901669809,1.3994199878075,Northwest
871, Discovery Food Court,discovery-food, 1474646,103.82361441105,1.2541438229781001,Southwest
872, Bukit Timah Community Club,timah-community, 389438480,103.77195,1.34046,Southwest
873, Will You Be Mine,timah-community, 284159564,103.8447599,1.31247,Central
874, Thumblr,timah-community, 161470527363307,103.8447599,1.31247,Central
875, DIMENSIONS International College,timah-community, 11032979,103.77421036160999,1.3416191111835,Southwest
876, National Biodiversity Centre,national-biodiversity, 1016421145,103.81700000000001,1.3167,Central
877, Thasevi Food,thasevi-food, 12908,103.8730118475,1.3962199915001001,Central
878, Jalan kayu prata @Thasevi food.,thasevi-food, 662201040,103.8729897714,1.3963693647825,Central
879, Blk 533,blk-533, 2836089816416885,103.74968594315,1.3558324393560999,Southwest
880, Blk 533 Bedok North Street 3,blk-533, 623917031378368,103.92444511213002,1.3338187335496001,Southeast
881, Blk 533 Hougang Avenue 6,blk-533, 278464879668033,103.89177052507,1.3756735468113999,Northeast
882, Blk 533 Jelapang Road,blk-533, 530028557008515,103.76399159431,1.3822335164396,Northwest
883, Blk 533 Upper Corss Street,blk-533, 620572854626690,103.84449842299999,1.2833457990000001,Central
884, The Belvedere,the-belvedere, 5050871,103.88750999999999,1.29752,Southeast
885, Sarnies,sarnie's, 5448951,103.84809878466,1.2815693448810002,Central
886, Lee Kee Mushroom Minced Meat Noodle,kee-minced-meat-noodle-&, 382383169217831,103.944647,1.345667,Northeast
887, HortCentre,hort-centre, 510124136059745,103.80120179648,1.2786482388073,Southwest
888, Hort Park Visitors Centre,hort-centre, 885590621,103.80167277540001,1.2793712038559,Southwest
889, Basil Thai Kitchen,basil-thai, 341211428,103.87306240353,1.3028750611253999,Southeast
890, Punggol Temporary Bus Interchange,(punggol-temporary, 249573866,103.902222222,1.40416666667,Northeast
891, Trilive Kovan,trilive-@-kovan, 230219254023213,103.89129,1.36201,Northeast
892, Long Jiang Seafood @ 38 commonwealth,long-jiang, 126140087463579,103.80423990000001,1.2976398999999998,Central
893, Stone Pot  Fish,pot-fish, 37730098,103.84346009696999,1.2827309809596001,Central
894, Logishub@Clementi,logishub, 11864223,103.76344877443,1.3266442797658,Southwest
895, Logwin Air+Ocean Singapore @ Logishub Clementi,logishub, 486557139,103.76293182386,1.3263761079563001,Southwest
896, Bus Stop 12209 (opp Logishub @ Clementi),logishub, 251663672207032,103.76416411058001,1.3265005047754,Southwest
897, Bus Stop 12201 (Logishub @ Clementi),logishub, 344946429406794,103.76404975084999,1.3267010851762,Southwest
898, Envirocare Landscape,logishub, 548974022126599,103.76331,1.32602,Southwest
899, Motorimage Pte Ltd (Subaru),payoh-(subaru), 284666106,103.85891471053002,1.3397751426748998,Central
900, Circle Line Mrt To Harbourfront,line-(harbourfront-to, 137553093013342,103.78435948,1.29468217,Southwest
901, Singapore Cruise Centre Terminal - off to batam,line-(harbourfront-to, 282389273,103.82032053,1.2633472,Central
902, Ferry Departure @ HarbourFront Centre,line-(harbourfront-to, 4205610,103.8203492761,1.2632228441467,Central
903, Star Cruise,line-(harbourfront-to, 347074702532435,103.818924,1.2620413000000001,Central
904, Aeroline,line-(harbourfront-to, 1961244163966349,103.81989787504,1.2638339304889998,Central
905, Bay East Drive,bay-east-drive, 307174413,103.86974799456,1.2869337759924,Southeast
906, Tyrwhitt Road,tyrwhitt-road, 1066315,103.86036909623002,1.311751674798,Central
907, 133 Tyrwhitt Road,tyrwhitt-road, 255230631730745,103.859933,1.31125,Central
908, Motorworld @ Tyrwhitt Road,tyrwhitt-road, 207565229289247,103.86119307103,1.3124808955887,Central
909, Hakka Yong Tau Foo @ Tyrwhitt Road,tyrwhitt-road, 261919477277906,103.85911999999999,1.3106280000000001,Central
910, Upper Aljunied,upper-aljunied, 316746531,103.87997323722,1.3338031169642999,Southeast
911, Upper Aljunied Link,upper-aljunied, 587435521,103.880560922,1.33479468808,Southeast
912, 5 Upper Aljunied  Road,upper-aljunied, 568698000228343,103.88196563721,1.3343330621719,Southeast
913, Johnson Controls @ 10 Upper Aljunied Link,upper-aljunied, 656146989,103.88211427691,1.3335501263023002,Southeast
914, Esso Cheers Upper Aljunied,upper-aljunied, 1022008540,103.87890380990999,1.3322709400301,Southeast
915, The Peak @ Balmeg,balmeg, 4250250,103.78374541281,1.282820901842,Southwest
916, Zi Zai Vegetarian Restaurant,zai-vegetarian, 2082898,103.93831099048,1.3469088355553,Northeast
917, 自在斋 ZI ZAI VEGETARIAN,zai-vegetarian, 252614927,103.83952292664,1.4341378733453998,Northwest
918, Zi Zai Vegetarian Restaurant,zai-vegetarian, 556695834791120,103.86309414448,1.3175302488771998,Central
919, Culto Caffe Cioccolato,culto-caffe-cioccolato, 269937207195717,103.99117199999999,1.3623530000000001,Southeast
920, Red Dynasty Paintball Park - Bukit Timah,dynasty-paintball, 249719027,103.79259140658002,1.3420662796001999,Northwest
921, Red Dynasty Paintball Field Bukit Timah,dynasty-paintball, 2082556508465014,103.79247463388,1.341940534823,Northwest
922, Lian Seng Hin Trading Co - Pte Ltd,lian-seng-hin, 442321085,103.8439731315,1.3268807665003,Central
923, Lian Seng Hin - Tiles Shop,lian-seng-hin, 568625702,103.8439731315,1.3268807665003,Central
924, Lian seng hin Trading co - pte ltd,lian-seng-hin, 1932585046955500,103.89043000000001,1.33105,Southeast
925, Lian Seng Hin Trading Co,lian-seng-hin, 514585682376945,103.74271701539,1.4155369903064998,Northwest
926, Spize Temasek Club,spize-@, 1017389191,103.78058583752,1.3464766274456998,Northwest
927, Spize Simpang Bedok,spize-@, 234925857,103.94813487111999,1.3313026756253001,Southeast
928, 70 west coast ferry road,west-coast-ferry, 893771651,103.7615096,1.291466471,Southwest
929, 62 West Coast Ferry Road,west-coast-ferry, 611204373,103.76244590809,1.2914794152646,Southwest
930, 62 West Coast Ferry Road,west-coast-ferry, 272350363311932,103.76286999999999,1.29169,Southwest
931, Chai Chee Avenue,chai-chee-avenue, 266620789,103.92505505828001,1.3254567471075,Southeast
932, Chai Chee Avenue Blk 32,chai-chee-avenue, 3755431,103.92503302143,1.3234864258168,Southeast
933, Bedok Chai Chee Avenue,chai-chee-avenue, 865643118,103.923550821,1.3245423270003,Southeast
934, Blk 34 Chai Chee Avenue,chai-chee-avenue, 1549904,103.92658004479,1.3242108953065002,Southeast
935, Chai Chee Avenue Blk 29a,chai-chee-avenue, 295008039,103.92401035921,1.3244747005724,Southeast
936, Our Space at Tai Gin,our-space-@-tai-gin, 202871210305459,103.84608077,1.32900181,Central
937, The Brownstone EC,the-brownstone-ec, 114465199180919,103.83054,1.4401700000000002,Northwest
938, The Brownstone EC,the-brownstone-ec, 881649809,103.821116675,1.44889,Northwest
939, The Brownstone EC,the-brownstone-ec, 207874816469767,103.82453000000001,1.44767,Northwest
940, The Brownstone,the-brownstone-ec, 865771890183897,103.824355494,1.44968893,Northwest
941, Blk 53A Spring Grove,blk-53a, 599636457121192,103.82719516754,1.2980566500144,Central
942, Blk 53A MSCP,blk-53a, 171285487126297,103.8078576794,1.2937653288503,Central
943, Sgh Blk 5 Ward 53A,blk-53a, 16057155,103.834571575,1.2793917885400001,Central
944, Bus Stop 11139 (Blk 53A CP),blk-53a, 2166994953543286,103.80726905069,1.2929969466793,Central
945, Blk 634 Pasir Ris Dr 1,blk--634, 234838149,103.94102268518,1.377619410282,Northeast
946, Blk 634 Choa Chu Kang North 6,blk--634, 293759831,103.7496111651,1.3968264724178001,Northwest
947, Blk 634 AMK ave6,blk--634, 869872183197433,103.85113484019001,1.3687166595556,Central
948, Blk 634 Yishun Avenue 4,blk--634, 1945200225566908,103.83909263333,1.4188617127853,Northwest
949, Blk 634 Hougang Avenue 8,blk--634, 279241812970250,103.879117614,1.3703243690897,Northeast
950, Bukit Panjang Fire Post,bukit-panjang-fire-post, 579099442544114,103.7703716855,1.3764262483767,Northwest
951, 真人宫 - 保生大帝 Zhen Ren Gong Temple,zhen-ren-gong-temple, 1011822578,103.8163071,1.28626,Central
952, Ming Chung Restaurant Since 1933,ming-chung-1933, 226793790687290,103.8583396325,1.30809536,Central
953, Hotel 81 Rochor,81-(rochor), 591385,103.85403000000001,1.30374,Central
954, Hotel 81,81-(rochor), 233633030094983,103.85394000000001,1.30542,Central
955, Sgcctv at Sim Lim Square,81-(rochor), 616717121718661,103.85303020477,1.3032051645132,Central
956, Hotel 81 Seregie,81-(rochor), 163028180568703,103.85003898415,1.3033541266989,Central
957, Microhard Computers,81-(rochor), 246961805340806,103.85302411476,1.3029786347787,Central
958, Wild Honey - All Day Breakfast,wild-honey, 214892236,103.83710968015,1.3020148701557,Central
959, Wild Honey,wild-honey, 112247936366611,103.832993,1.305744,Central
960, Wild Honey,wild-honey, 351691591,103.83250703955,1.3061780905268001,Central
961, Teck Ghee Food Centre,ghee-food-centre, 520079911373097,103.855591,1.362645,Central
962, Rong Xi Economic Mixed Vegetables Rice @ Blk 341,ghee-food-centre, 2126497710932657,103.84818538616,1.3638955852811998,Central
963, Vegetable Oil Fried Carrot Cake,ghee-food-centre, 539788896467704,103.84812822431999,1.3635914219364,Central
964, Belinda's Traditional Pancake,ghee-food-centre, 1983298511722272,103.84963421459,1.3696461428323001,Central
965, PIE (paya lebar exit),lebar-station-exit, 319589330,103.88795124913,1.3224748014176,Southeast
966, Bus Stop 81119 (Paya Lebar Stn Exit C),lebar-station-exit, 1248516261956517,103.89188724201999,1.3185403397992,Southeast
967, Comfort Delgro Engineering,delgro-engineering, 465991240588788,103.97713737119,1.3774150022334999,Northeast
968, ComfortDelgro Engineering,delgro-engineering, 606331563142261,103.96747721946,1.3705938533636999,Northeast
969, ComfortDelgro Engineering @ Sungei Kadut,delgro-engineering, 2120631434931865,103.7499749553,1.4072257228306002,Northwest
970, Comfort Delgro Engineering @ Sin Ming,delgro-engineering, 274957503157373,103.83908131090999,1.3609952200472,Central
971, Comfort Delgro Sungai Kadut,delgro-engineering, 363332691,103.74992528015999,1.4068796420124001,Northwest
972, Pacific Healthcare Nursing Home,healthcare-nursing-home, 10963291,103.81087999757,1.2865267695156999,Central
973, Hoover Hotel,hoover-hotel, 271203989,103.85301,1.3217698999999998,Central
974, 3 Tuas Link 4,tuas-link-3, 406592076,103.6408877,1.3362337,Southwest
975, 3M @ Tuas Link 4,tuas-link-3, 195444004669707,103.64090958527001,1.3370583198975,Southwest
976, 3m Tuas,tuas-link-3, 365741672,103.64111730916001,1.3365342126921,Southwest
977, 39 Tuas View Close,tuas-link-3, 225118234221696,103.62546247666,1.3006712150016,Southwest
978, Tuas Second Link Checkpoint,tuas-link-3, 1103702,103.63619440000001,1.3475221000000002,Southwest
979, Burger King At Boon Lay Interchange,boon-king, 770388385,103.70534651716999,1.33881510212,Southwest
980, The Singapura Club,singapura-club, 420263951,103.85911964716,1.3006903574351,Central
